     3.02           OBSERVATION DATA    M: Mixed            RINEX VERSION / TYPE
GNSS-SDRLIB v1.1                        20180429 102920 UTC PGM / RUN BY / DATE 
                                                            MARKER NAME         
                                                            MARKER NUMBER       
                                                            MARKER TYPE         
                                                            OBSERVER / AGENCY   
GNSS-SDRLIB         GNSS-SDRLIB         1.1                 REC # / TYPE / VERS 
                                                            ANT # / TYPE        
        0.0000        0.0000        0.0000                  APPROX POSITION XYZ 
        0.0000        0.0000        0.0000                  ANTENNA: DELTA H/E/N
G    4 C1C L1C D1C S1C                                      SYS / # / OBS TYPES 
R    4 C1C L1C D1C S1C                                      SYS / # / OBS TYPES 
E    4 C1C L1C D1C S1C                                      SYS / # / OBS TYPES 
J    4 C1C L1C D1C S1C                                      SYS / # / OBS TYPES 
S    4 C1C L1C D1C S1C                                      SYS / # / OBS TYPES 
C    4 C1C L1C D1C S1C                                      SYS / # / OBS TYPES 
  1970     1     1     0     0    0.0000000     GPS         TIME OF FIRST OBS   
  1970     1     1     0     0    0.0000000     GPS         TIME OF LAST OBS    
G                                                           SYS / PHASE SHIFT   
R                                                           SYS / PHASE SHIFT   
E                                                           SYS / PHASE SHIFT   
J                                                           SYS / PHASE SHIFT   
S                                                           SYS / PHASE SHIFT   
C                                                           SYS / PHASE SHIFT   
  0                                                         GLONASS SLOT / FRQ #
 C1C    0.000 C1P    0.000 C2C    0.000 C2P    0.000        GLONASS COD/PHS/BIS 
                                                            END OF HEADER       
> 2018  4 22 11 21  6.0688020  0  1                     
G17  20625056.081      -25377.335       -2324.071          51.750  
> 2018  4 22 11 21  6.0688020  0  2                     
G17  21059048.156      -25373.970       -2324.050          51.750  
G28  20625059.329        3649.699         352.531          48.250  
> 2018  4 22 11 21  6.0688020  0  3                     
G17  21059048.156      -25373.970       -2324.050          51.750  
G22  22900473.522        8513.292         785.693          46.250  
G28  20625059.329        3649.699         352.531          48.250  
> 2018  4 22 11 21  6.0688020  0  4                     
G 1  22724837.668       22286.425        1994.441          48.750  
G17  21059048.156      -25373.970       -2324.050          51.750  
G22  22900473.522        8513.473         800.926          46.250  
G28  20625059.329        3649.699         352.531          48.250  
> 2018  4 22 11 21  6.0688020  0  5                     
G 1  22724837.668       22277.333        2004.250          49.000  
G11  23386715.862       22374.522        2029.168          44.250  
G17  21059048.156      -25373.970       -2324.050          51.750  
G22  22900473.522        8513.473         800.926          46.250  
G28  20625059.329        3649.699         352.531          48.250  
> 2018  4 22 11 21  6.1688020  0  5                     
G 1  22726725.705       22478.287        2004.207          49.000  
G11  23388604.408       22575.709        2013.425          44.500  
G17  21060853.711      -25606.304       -2323.821          51.750  
G22  22902337.529        8593.537         801.390          46.250  
G28  20626915.768        3684.926         353.090          48.250  
> 2018  4 22 11 21  6.2688020  0  5                     
G 1  22728595.289       22678.785        2005.248          49.000  
G11  23390475.317       22777.106        2014.181          44.500  
G17  21062641.690      -25838.593       -2322.594          51.750  
G22  22904184.861        8673.645         801.434          46.500  
G28  20628755.324        3720.228         353.018          48.250  
> 2018  4 22 11 21  6.3688020  0  5                     
G 1  22730465.288       22879.386        2006.155          48.750  
G11  23392345.329       22978.608        2015.185          44.250  
G17  21064429.015      -26070.768       -2322.538          51.750  
G22  22906032.101        8753.876         802.141          46.500  
G28  20630591.254        3755.632         354.289          48.250  
> 2018  4 22 11 21  6.4688020  0  5                     
G 1  22732335.789       23080.039        2007.373          49.000  
G11  23394215.008       23180.156        2016.015          44.000  
G17  21066216.677      -26302.912       -2320.949          51.500  
G22  22907879.126        8834.137         803.287          46.250  
G28  20632430.298        3791.086         354.427          48.250  
> 2018  4 22 11 21  6.5688020  0  5                     
G 1  22734205.556       23280.733        2006.998          49.000  
G11  23396084.251       23381.748        2015.719          44.500  
G17  21068004.730      -26534.998       -2320.750          51.750  
G22  22909725.159        8914.461         803.119          46.250  
G28  20634269.761        3826.590         355.526          48.500  
> 2018  4 22 11 21  6.6688020  0  5                     
G 1  22736075.329       23481.452        2008.092          49.000  
G11  23397955.218       23583.389        2017.197          44.250  
G17  21069792.219      -26767.055       -2320.367          51.750  
G22  22911571.929        8994.813         804.244          46.500  
G28  20636106.888        3862.129         356.043          48.250  
> 2018  4 22 11 21  6.7688020  0  5                     
G 1  22737945.595       23682.285        2008.752          49.000  
G11  23399825.489       23785.110        2017.705          44.500  
G17  21071579.677      -26999.001       -2319.374          51.500  
G22  22913419.683        9075.279         805.768          46.500  
G28  20637946.709        3897.775         356.693          48.500  
> 2018  4 22 11 21  6.8688020  0  5                     
G 1  22739815.353       23883.157        2008.243          49.000  
G11  23401695.321       23986.885        2017.244          44.500  
G17  21073366.696      -27230.910       -2319.281          51.750  
G22  22915266.659        9155.792         805.831          46.750  
G28  20639784.201        3933.458         356.827          48.250  
> 2018  4 22 11 21  6.9688020  0  5                     
G 1  22741684.535       24084.082        2009.629          49.000  
G11  23403565.631       24188.708        2018.479          44.250  
G17  21075154.431      -27462.763       -2318.360          51.500  
G22  22917113.365        9236.361         805.645          46.500  
G28  20641621.658        3969.201         357.887          48.250  
> 2018  4 22 11 21  7.0688020  0  5                     
G 1  22743554.228       24285.018        2009.248          48.750  
G11  23405436.392       24390.540        2018.422          44.000  
G17  21076941.931      -27694.608       -2318.377          51.750  
G22  22918960.879        9316.945         806.587          46.500  
G28  20643461.128        4004.966         358.108          48.250  
> 2018  4 22 11 21  7.1688020  0  5                     
G 1  22745423.854       24485.975        2009.031          49.000  
G11  23407306.018       24592.402        2019.136          44.000  
G17  21078729.661      -27926.438       -2319.002          51.750  
G22  22920808.291        9397.535         806.118          46.250  
G28  20645298.489        4040.757         357.853          48.250  
> 2018  4 22 11 21  7.2688020  0  5                     
G 1  22747294.017       24686.898        2008.838          49.000  
G11  23409176.034       24794.214        2017.668          44.000  
G17  21080517.331      -28158.285       -2318.177          51.750  
G22  22922655.600        9478.120         804.978          46.250  
G28  20647136.983        4076.517         357.234          48.250  
> 2018  4 22 11 21  7.3688020  0  5                     
G 1  22749163.540       24887.797        2008.445          49.250  
G11  23411046.454       24996.014        2017.078          44.000  
G17  21082304.214      -28390.162       -2319.298          51.750  
G22  22924502.290        9558.680         806.458          46.500  
G28  20648976.553        4112.258         357.427          48.250  
> 2018  4 22 11 21  7.4688020  0  5                     
G 1  22751033.596       25088.705        2009.955          49.000  
G11  23412916.641       25197.835        2019.300          44.000  
G17  21084091.554      -28622.017       -2318.090          51.750  
G22  22926347.292        9639.239         806.158          46.250  
G28  20650812.497        4148.024         358.454          47.750  
> 2018  4 22 11 21  7.5688020  0  5                     
G 1  22752903.706       25289.666        2009.506          49.000  
G11  23414785.623       25399.687        2018.256          44.250  
G17  21085879.122      -28853.845       -2318.117          51.750  
G22  22928194.492        9719.860         806.344          46.250  
G28  20652651.563        4183.818         357.742          48.250  
> 2018  4 22 11 21  7.6688020  0  5                     
G 1  22754773.830       25490.609        2009.257          49.000  
G11  23416655.738       25601.511        2019.006          44.250  
G17  21087666.301      -29085.684       -2318.766          51.750  
G22  22930041.906        9800.465         805.675          46.500  
G28  20654490.526        4219.605         358.290          48.000  
> 2018  4 22 11 21  7.7688020  0  5                     
G 1  22756644.482       25691.510        2009.767          48.750  
G11  23418525.479       25803.314        2018.077          44.250  
G17  21089453.667      -29317.553       -2318.947          51.750  
G22  22931889.704        9881.045         806.103          46.500  
G28  20656327.488        4255.374         357.647          48.250  
> 2018  4 22 11 21  7.8688020  0  5                     
G 1  22758514.349       25892.393        2008.582          49.000  
G11  23420395.315       26005.095        2017.138          44.000  
G17  21091240.593      -29549.434       -2319.124          51.750  
G22  22933736.458        9961.603         805.479          46.250  
G28  20658166.655        4291.111         357.229          48.250  
> 2018  4 22 11 21  7.9688020  0  5                     
G 1  22760384.729       26093.272        2009.057          48.750  
G11  23422266.831       26206.863        2017.358          44.000  
G17  21093028.443      -29781.330       -2318.992          51.750  
G22  22935583.661       10042.153         805.728          46.500  
G28  20660005.059        4326.867         357.862          48.250  
> 2018  4 22 11 21  8.0688020  0  5                     
G 1  22762254.326       26294.132        2008.268          49.000  
G11  23424136.727       26408.652        2017.625          44.250  
G17  21094815.865      -30013.230       -2319.704          52.000  
G22  22937430.229       10122.709         805.140          46.500  
G28  20661843.755        4362.602         357.526          48.250  
> 2018  4 22 11 21  8.1688020  0  5                     
G 1  22764123.757       26494.988        2009.110          49.000  
G11  23426006.409       26610.393        2017.201          44.000  
G17  21096603.073      -30245.143       -2318.799          52.000  
G22  22939277.585       10203.244         806.146          46.250  
G28  20663684.123        4398.331         358.255          48.000  
> 2018  4 22 11 21  8.2688020  0  5                     
G 1  22765993.013       26695.863        2009.191          49.000  
G11  23427876.957       26812.154        2018.019          44.250  
G17  21098390.663      -30477.046       -2318.541          51.750  
G22  22941125.261       10283.807         806.486          46.500  
G28  20665520.107        4434.078         358.233          48.000  
> 2018  4 22 11 21  8.3688020  0  5                     
G 1  22767862.617       26896.782        2009.419          49.000  
G11  23429745.862       27013.984        2018.597          44.250  
G17  21100178.243      -30708.894       -2318.631          51.750  
G22  22942972.867       10364.430         806.580          46.500  
G28  20667358.087        4469.882         358.941          48.250  
> 2018  4 22 11 21  8.4688020  0  5                     
G 1  22769732.020       27097.659        2009.039          49.000  
G11  23431615.419       27215.758        2017.953          44.500  
G17  21101965.987      -30940.794       -2318.691          51.750  
G22  22944819.260       10445.004         806.118          46.500  
G28  20669197.310        4505.646         358.399          48.250  
> 2018  4 22 11 21  8.5688020  0  5                     
G 1  22771602.108       27298.573        2009.935          49.250  
G11  23433485.607       27417.565        2018.375          44.000  
G17  21103753.333      -31172.643       -2318.480          51.750  
G22  22946666.359       10525.608         806.482          46.000  
G28  20671034.299        4541.447         358.431          48.250  
> 2018  4 22 11 21  8.6688020  0  5                     
G 1  22773471.200       27499.481        2009.154          49.000  
G11  23435356.303       27619.384        2018.627          44.250  
G17  21105541.354      -31404.484       -2318.703          51.750  
G22  22948511.841       10606.250         806.719          46.250  
G28  20672874.554        4577.263         357.466          48.000  
> 2018  4 22 11 21  8.7688020  0  5                     
G 1  22775340.553       27700.355        2008.619          49.000  
G11  23437227.526       27821.126        2017.118          44.500  
G17  21107328.496      -31636.393       -2319.668          51.750  
G22  22950358.671       10686.810         805.309          46.250  
G28  20674712.399        4613.019         357.392          48.250  
> 2018  4 22 11 21  8.8688020  0  5                     
G 1  22777210.733       27901.166        2008.618          49.000  
G11  23439096.911       28022.847        2017.674          44.500  
G17  21109115.961      -31868.331       -2319.731          52.000  
G22  22952206.193       10767.344         805.297          46.500  
G28  20676550.136        4648.744         356.609          48.500  
> 2018  4 22 11 21  8.9688020  0  5                     
G 1  22779080.585       28101.999        2008.170          49.000  
G11  23440967.106       28224.578        2017.248          44.250  
G17  21110903.315      -32100.278       -2319.372          51.750  
G22  22954053.392       10847.879         805.315          46.250  
G28  20678389.777        4684.470         357.133          48.000  
> 2018  4 22 11 21  9.0688020  0  5                     
G 1  22780950.745       28302.845        2008.326          49.000  
G11  23442836.532       28426.322        2016.641          44.250  
G17  21112690.551      -32332.184       -2319.268          51.750  
G22  22955900.392       10928.467         805.439          46.250  
G28  20680227.129        4720.249         357.962          47.750  
> 2018  4 22 11 21  9.1688020  0  5                     
G 1  22782820.938       28503.699        2008.497          48.750  
G11  23444705.667       28628.070        2016.725          44.000  
G17  21114478.434      -32564.091       -2319.132          51.750  
G22  22957746.462       11009.030         805.992          46.250  
G28  20682064.871        4756.013         357.764          48.000  
> 2018  4 22 11 21  9.2688020  0  5                     
G 1  22784690.436       28704.537        2008.200          48.750  
G11  23446576.055       28829.821        2017.120          44.250  
G17  21116265.730      -32796.010       -2319.427          51.750  
G22  22959592.614       11089.600         805.147          46.250  
G28  20683904.957        4791.773         357.076          48.000  
> 2018  4 22 11 21  9.3688020  0  5                     
G 1  22786559.868       28905.355        2008.816          49.000  
G11  23448445.833       29031.521        2016.823          44.250  
G17  21118053.131      -33027.965       -2319.608          51.750  
G22  22961440.041       11170.140         805.952          46.250  
G28  20685741.524        4827.513         357.330          48.250  
> 2018  4 22 11 21  9.4688020  0  5                     
G 1  22788429.523       29106.182        2008.110          49.250  
G11  23450316.165       29233.231        2017.618          44.250  
G17  21119841.141      -33259.882       -2318.882          51.750  
G22  22963288.390       11250.702         805.615          46.500  
G28  20687580.637        4863.271         358.321          48.000  
> 2018  4 22 11 21  9.5688020  0  5                     
G 1  22790299.308       29306.963        2008.370          49.000  
G11  23452186.038       29434.901        2017.115          44.000  
G17  21121628.405      -33491.876       -2319.830          52.000  
G22  22965135.868       11331.224         805.243          46.750  
G28  20689418.523        4898.978         357.521          48.000  
> 2018  4 22 11 21  9.6688020  0  5                     
G 1  22792169.184       29507.643        2006.518          49.000  
G11  23454056.389       29636.490        2015.442          44.000  
G17  21123416.315      -33723.942       -2321.203          51.750  
G22  22966982.605       11411.655         803.066          46.250  
G28  20691255.837        4934.603         355.636          47.750  
> 2018  4 22 11 21  9.7688020  0  5                     
G 1  22794038.331       29708.294        2006.222          49.000  
G11  23455926.129       29838.024        2014.813          44.500  
G17  21125203.465      -33956.061       -2321.570          52.000  
G22  22968829.593       11492.048         803.583          46.250  
G28  20693095.180        4970.193         355.468          48.000  
> 2018  4 22 11 21  9.8688020  0  5                     
G 1  22795908.131       29908.916        2006.500          49.250  
G11  23457795.883       30039.554        2015.343          44.750  
G17  21126991.001      -34188.193       -2321.931          51.750  
G22  22970677.162       11572.410         803.894          46.500  
G28  20694933.157        5005.765         355.308          48.000  
> 2018  4 22 11 21  9.9688020  0  5                     
G 1  22797778.093       30109.490        2005.841          48.750  
G11  23459666.773       30241.012        2014.781          44.250  
G17  21128778.469      -34420.381       -2322.124          51.750  
G22  22972523.738       11652.752         803.475          45.750  
G28  20696770.785        5041.285         354.953          47.750  
> 2018  4 22 11 21 10.0688020  0  5                     
G 1  22799648.125       30310.011        2004.787          49.000  
G11  23461537.042       30442.419        2014.040          44.250  
G17  21130565.355      -34652.597       -2322.708          52.000  
G22  22974370.158       11733.027         803.146          46.500  
G28  20698610.733        5076.767         354.366          48.000  
> 2018  4 22 11 21 10.1688020  0  5                     
G 1  22801518.251       30510.496        2004.753          49.000  
G11  23463406.302       30643.802        2013.866          44.000  
G17  21132353.249      -34884.880       -2323.036          51.750  
G22  22976217.266       11813.271         802.816          46.250  
G28  20700447.871        5112.205         354.382          48.000  
> 2018  4 22 11 21 10.2688020  0  5                     
G 1  22803387.873       30710.909        2003.561          49.000  
G11  23465276.241       30845.098        2012.737          44.000  
G17  21134140.522      -35117.219       -2324.403          51.750  
G22  22978064.172       11893.445         801.288          46.500  
G28  20702287.017        5147.583         353.019          48.000  
> 2018  4 22 11 21 10.3688020  0  5                     
G 1  22805257.886       30911.309        2004.075          49.000  
G11  23467145.999       31046.403        2013.711          44.250  
G17  21135927.743      -35349.570       -2323.154          52.000  
G22  22979911.321       11973.628         802.229          46.500  
G28  20704125.560        5182.948         354.375          48.250  
> 2018  4 22 11 21 10.4688020  0  5                     
G 1  22807127.430       31111.756        2004.367          49.000  
G11  23469015.483       31247.741        2014.223          44.000  
G17  21137715.338      -35581.876       -2323.392          51.750  
G22  22981757.141       12053.833         802.079          46.250  
G28  20705962.600        5218.373         354.089          48.250  
> 2018  4 22 11 21 10.5688020  0  5                     
G 1  22808996.939       31312.187        2004.339          49.250  
G11  23470884.303       31449.066        2013.248          44.250  
G17  21139502.590      -35814.202       -2323.054          52.000  
G22  22983603.176       12134.043         801.922          46.500  
G28  20707801.619        5253.776         354.040          48.000  
> 2018  4 22 11 21 10.6688020  0  5                     
G 1  22810866.731       31512.656        2005.032          49.000  
G11  23472754.942       31650.410        2014.649          44.250  
G17  21141290.864      -36046.493       -2322.976          52.000  
G22  22985450.034       12214.291         803.032          46.500  
G28  20709639.669        5289.207         355.158          48.000  
> 2018  4 22 11 21 10.7688020  0  5                     
G 1  22812736.345       31713.124        2004.543          49.250  
G11  23474624.803       31851.770        2013.224          44.250  
G17  21143077.829      -36278.785       -2323.100          51.750  
G22  22987296.851       12294.528         802.236          46.250  
G28  20711476.973        5324.659         354.330          48.250  
> 2018  4 22 11 21 10.8688020  0  5                     
G 1  22814606.240       31913.607        2005.432          49.250  
G11  23476494.775       32053.129        2013.222          44.500  
G17  21144865.187      -36511.044       -2322.811          52.000  
G22  22989144.366       12374.807         802.756          46.250  
G28  20713317.016        5360.118         354.437          48.000  
> 2018  4 22 11 21 10.9688020  0  5                     
G 1  22816476.114       32114.102        2004.453          49.250  
G11  23478365.501       32254.537        2013.908          44.000  
G17  21146652.716      -36743.280       -2322.672          51.750  
G22  22990991.569       12455.101         802.594          46.500  
G28  20715154.033        5395.622         355.307          48.000  
> 2018  4 22 11 21 11.0688020  0  5                     
G 1  22818346.118       32314.590        2004.909          49.250  
G11  23480234.056       32455.893        2013.194          44.250  
G17  21148439.421      -36975.552       -2322.855          52.000  
G22  22992836.553       12535.376         803.000          46.250  
G28  20716991.936        5431.091         354.446          48.000  
> 2018  4 22 11 21 11.1688020  0  5                     
G 1  22820215.752       32515.088        2005.204          49.250  
G11  23482102.704       32657.287        2013.714          43.750  
G17  21150226.796      -37207.797       -2322.493          52.000  
G22  22994683.484       12615.659         802.861          46.500  
G28  20718832.239        5466.587         354.520          47.750  
> 2018  4 22 11 21 11.2688020  0  5                     
G 1  22822084.890       32715.607        2005.409          49.000  
G11  23483972.902       32858.691        2014.806          43.750  
G17  21152013.773      -37440.026       -2322.549          51.750  
G22  22996530.863       12695.988         803.886          46.250  
G28  20720668.054        5502.111         355.370          47.750  
> 2018  4 22 11 21 11.3688020  0  5                     
G 1  22823954.427       32916.111        2005.417          49.000  
G11  23485841.656       33060.090        2014.019          44.000  
G17  21153801.493      -37672.271       -2322.371          51.750  
G22  22998378.348       12776.288         802.860          46.250  
G28  20722506.562        5537.621         354.680          48.000  
> 2018  4 22 11 21 11.4688020  0  5                     
G 1  22825824.402       33116.587        2004.853          49.000  
G11  23487711.389       33261.458        2013.358          44.000  
G17  21155588.866      -37904.538       -2322.703          51.750  
G22  23000225.975       12856.576         803.103          46.500  
G28  20724346.195        5573.106         354.881          47.750  
> 2018  4 22 11 21 11.5688020  0  5                     
G 1  22827694.919       33317.073        2005.080          48.750  
G11  23489581.808       33462.822        2014.027          43.750  
G17  21157376.215      -38136.794       -2322.188          51.750  
G22  23002072.118       12936.862         803.979          46.500  
G28  20726183.633        5608.619         355.649          48.000  
> 2018  4 22 11 21 11.6688020  0  5                     
G 1  22829563.959       33517.567        2005.538          49.000  
G11  23491451.117       33664.198        2014.383          44.000  
G17  21159163.893      -38369.039       -2322.033          52.000  
G22  23003919.055       13017.178         803.039          46.250  
G28  20728023.166        5644.115         355.356          47.750  
> 2018  4 22 11 21 11.7688020  0  5                     
G 1  22831433.194       33718.066        2005.246          49.000  
G11  23493321.413       33865.604        2014.562          43.750  
G17  21160951.185      -38601.283       -2322.265          52.000  
G22  23005766.011       13097.500         803.824          46.500  
G28  20729860.589        5679.647         355.499          48.000  
> 2018  4 22 11 21 11.8688020  0  5                     
G 1  22833302.903       33918.573        2005.514          49.250  
G11  23495191.289       34066.995        2014.886          44.000  
G17  21162738.890      -38833.510       -2321.953          52.000  
G22  23007613.170       13177.832         803.882          46.500  
G28  20731698.617        5715.200         356.278          48.000  
> 2018  4 22 11 21 11.9688020  0  5                     
G 1  22835172.662       34119.137        2005.856          49.000  
G11  23497061.039       34268.457        2015.272          44.250  
G17  21164526.321      -39065.679       -2321.271          52.000  
G22  23009459.781       13258.233         804.690          46.250  
G28  20733538.812        5750.792         356.347          48.000  
> 2018  4 22 11 21 12.0688020  0  5                     
G 1  22837042.710       34319.744        2007.153          49.250  
G11  23498931.735       34469.949        2016.587          44.250  
G17  21166313.637      -39297.821       -2320.870          52.000  
G22  23011306.784       13338.605         787.299          46.250  
G28  20735375.924        5786.438         357.899          48.000  
> 2018  4 22 11 21 12.1688020  0  5                     
G 1  22838912.637       34520.503        2007.888          49.250  
G11  23500801.947       34671.579        2016.826          44.250  
G17  21168101.637      -39529.791       -2319.609          52.000  
G22  23013152.797       13419.172         801.852          46.250  
G28  20737215.252        5822.230         358.789          48.000  
> 2018  4 22 11 21 12.2688020  0  5                     
G 1  22840782.896       34721.238        2007.538          49.250  
G11  23502672.475       34873.213        2015.774          44.250  
G17  21169888.838      -39761.796       -2320.542          52.000  
G22  23015000.269       13499.834         806.106          46.250  
G28  20739053.621        5858.021         357.603          48.000  
> 2018  4 22 11 21 12.3688020  0  5                     
G 1  22842653.497       34922.094        2009.570          49.000  
G11  23504542.743       35074.939        2017.084          44.000  
G17  21171676.436      -39993.688       -2318.571          52.000  
G22  23016846.579       13580.525         807.390          46.250  
G28  20740890.225        5893.899         360.157          48.000  
> 2018  4 22 11 21 12.4688020  0  5                     
G 1  22844522.600       35122.993        2008.688          49.000  
G11  23506412.443       35276.744        2018.932          44.000  
G17  21173463.574      -40225.510       -2318.211          52.000  
G22  23018694.690       13661.277         808.353          46.250  
G28  20742729.577        5929.878         360.086          47.750  
> 2018  4 22 11 21 12.5688020  0  5                     
G 1  22846391.915       35323.963        2009.402          49.000  
G11  23508281.819       35478.589        2018.888          44.000  
G17  21175251.058      -40457.288       -2318.006          52.000  
G22  23020541.965       13742.085         807.971          46.500  
G28  20744568.364        5965.891         360.451          48.000  
> 2018  4 22 11 21 12.6688020  0  5                     
G 1  22848261.611       35524.965        2010.849          49.000  
G11  23510151.248       35680.491        2019.617          44.000  
G17  21177038.864      -40689.012       -2316.981          52.000  
G22  23022389.512       13822.956         808.726          46.250  
G28  20746406.452        6001.952         360.410          48.250  
> 2018  4 22 11 21 12.7688020  0  5                     
G 1  22850131.192       35726.073        2011.358          49.250  
G11  23512021.378       35882.453        2019.529          44.000  
G17  21178826.775      -40920.641       -2315.875          52.000  
G22  23024236.013       13903.915         809.931          46.250  
G28  20748246.575        6038.120         362.128          47.750  
> 2018  4 22 11 21 12.8688020  0  5                     
G 1  22852001.667       35927.344        2013.523          48.500  
G11  23513890.305       36084.625        2022.937          43.750  
G17  21180614.366      -41152.103       -2313.757          51.750  
G22  23026082.918       13985.045         812.730          46.250  
G28  20750084.193        6074.471         364.524          47.750  
> 2018  4 22 11 21 12.9688020  0  5                     
G 1  22853872.029       36128.823        2015.401          49.000  
G11  23515761.217       36286.970        2024.292          43.750  
G17  21182401.206      -41383.368       -2312.443          51.750  
G22  23027929.619       14066.384         814.509          46.500  
G28  20751923.405        6110.993         365.688          47.750  
> 2018  4 22 11 21 13.0688020  0  5                     
G 1  22855742.037       36330.463        2016.838          49.250  
G11  23517631.723       36489.486        2025.708          44.000  
G17  21184188.654      -41614.467       -2310.059          52.000  
G22  23029776.500       14147.880         815.703          46.750  
G28  20753762.441        6147.717         367.837          48.000  
> 2018  4 22 11 21 13.1688020  0  5                     
G 1  22857611.781       36532.207        2017.915          49.250  
G11  23519501.775       36692.131        2026.464          44.000  
G17  21185975.962      -41845.451       -2309.783          52.000  
G22  23031623.875       14229.500         816.789          46.500  
G28  20755600.431        6184.549         369.069          48.000  
> 2018  4 22 11 21 13.2688020  0  5                     
G 1  22859481.961       36733.997        2018.268          49.250  
G11  23521372.161       36894.800        2026.578          44.000  
G17  21187763.489      -42076.393       -2309.578          52.000  
G22  23033471.633       14311.163         816.281          46.250  
G28  20757440.331        6221.418         368.732          48.000  
> 2018  4 22 11 21 13.3688020  0  5                     
G 1  22861351.517       36935.811        2017.520          49.250  
G11  23523242.374       37097.499        2025.635          44.000  
G17  21189551.298      -42307.299       -2309.609          52.000  
G22  23035318.373       14392.876         816.434          46.250  
G28  20759276.986        6258.330         368.105          47.750  
> 2018  4 22 11 21 13.4688020  0  5                     
G 1  22863221.090       37137.574        2016.642          49.000  
G11  23525111.307       37300.141        2024.897          44.250  
G17  21191338.345      -42538.276       -2310.713          51.750  
G22  23037164.852       14474.503         815.850          46.000  
G28  20761115.009        6295.182         367.142          47.750  
> 2018  4 22 11 21 13.5688020  0  5                     
G 1  22865091.611       37339.187        2015.672          49.000  
G11  23526981.886       37502.650        2025.485          44.000  
G17  21193126.056      -42769.379       -2311.206          52.000  
G22  23039010.893       14556.011         814.544          46.250  
G28  20762955.297        6331.909         366.889          48.000  
> 2018  4 22 11 21 13.6688020  0  5                     
G 1  22866961.609       37540.774        2015.941          49.000  
G11  23528852.334       37705.103        2024.190          44.250  
G17  21194913.981      -43000.530       -2311.828          52.000  
G22  23040858.052       14637.466         813.871          46.250  
G28  20764791.300        6368.591         367.063          47.750  
> 2018  4 22 11 21 13.7688020  0  5                     
G 1  22868831.171       37742.282        2015.073          48.750  
G11  23530721.968       37907.527        2024.641          44.000  
G17  21196701.957      -43231.735       -2312.117          52.000  
G22  23042704.526       14718.901         813.935          46.250  
G28  20766629.506        6405.210         365.559          48.000  
> 2018  4 22 11 21 13.8688020  0  5                     
G 1  22870701.218       37943.771        2014.843          49.000  
G11  23532592.323       38109.870        2023.931          43.750  
G17  21198489.810      -43462.984       -2312.500          52.000  
G22  23044552.178       14800.275         813.845          46.500  
G28  20768469.139        6441.806         366.122          48.000  
> 2018  4 22 11 21 13.9688020  0  5                     
G 1  22872571.247       38145.233        2014.724          49.000  
G11  23534462.802       38312.231        2024.185          44.000  
G17  21200276.998      -43694.235       -2312.587          52.000  
G22  23046399.816       14881.645         813.011          46.250  
G28  20770306.662        6478.390         365.831          48.000  
> 2018  4 22 11 21 14.0688020  0  5                     
G 1  22874440.693       38346.643        2013.536          49.250  
G11  23536333.154       38514.516        2022.780          44.000  
G17  21202065.050      -43925.558       -2313.472          52.000  
G22  23048246.808       14962.964         813.592          46.250  
G28  20772146.594        6514.919         365.417          48.000  
> 2018  4 22 11 21 14.1688020  0  5                     
G 1  22876310.535       38548.047        2014.086          49.000  
G11  23538202.278       38716.806        2023.513          43.750  
G17  21203852.645      -44156.866       -2313.120          52.000  
G22  23050092.913       15044.279         813.172          46.250  
G28  20773984.115        6551.442         365.949          48.000  
> 2018  4 22 11 21 14.2688020  0  5                     
G 1  22878180.345       38749.477        2014.225          49.250  
G11  23540071.832       38919.109        2022.669          43.750  
G17  21205640.180      -44388.171       -2313.457          52.000  
G22  23051940.785       15125.607         812.672          46.750  
G28  20775821.869        6587.998         364.977          48.000  
> 2018  4 22 11 21 14.3688020  0  5                     
G 1  22880050.051       38950.838        2013.611          49.000  
G11  23541942.124       39121.365        2022.641          43.750  
G17  21207427.875      -44619.521       -2313.932          52.250  
G22  23053787.539       15206.894         812.451          46.250  
G28  20777662.690        6624.492         364.672          48.000  
> 2018  4 22 11 21 14.4688020  0  5                     
G 1  22881919.940       39152.233        2013.949          49.250  
G11  23543811.493       39323.630        2022.429          44.000  
G17  21209215.479      -44850.856       -2313.818          52.000  
G22  23055635.645       15288.202         812.869          46.500  
G28  20779500.135        6661.018         364.894          48.000  
> 2018  4 22 11 21 14.5688020  0  5                     
G 1  22883789.556       39353.586        2013.673          49.250  
G11  23545681.364       39525.868        2022.280          44.000  
G17  21211003.241      -45082.228       -2314.120          52.000  
G22  23057483.260       15369.479         812.602          46.500  
G28  20781339.178        6697.505         364.678          48.000  
> 2018  4 22 11 21 14.6688020  0  5                     
G 1  22885659.944       39554.864        2013.584          49.250  
G11  23547551.664       39728.017        2022.842          43.750  
G17  21212790.336      -45313.682       -2314.690          52.000  
G22  23059329.565       15450.669         811.966          46.250  
G28  20783177.720        6733.921         364.336          48.000  
> 2018  4 22 11 21 14.7688020  0  5                     
G 1  22887529.401       39756.130        2012.658          49.000  
G11  23549423.619       39930.164        2020.994          43.750  
G17  21214577.758      -45545.122       -2314.753          52.000  
G22  23061175.959       15531.891         811.864          46.500  
G28  20785015.150        6770.347         363.741          47.750  
> 2018  4 22 11 21 14.8688020  0  5                     
G 1  22889399.896       39957.357        2012.042          49.000  
G11  23551293.630       40132.271        2020.311          44.000  
G17  21216365.401      -45776.608       -2315.139          52.000  
G22  23063023.729       15613.041         811.679          46.250  
G28  20786854.480        6806.723         364.290          47.750  
> 2018  4 22 11 21 14.9688020  0  5                     
G 1  22891270.267       40158.568        2012.901          49.250  
G11  23553164.136       40334.377        2022.808          44.000  
G17  21218153.049      -46008.108       -2314.459          52.000  
G22  23064870.155       15694.194         812.454          46.500  
G28  20788692.033        6843.103         365.083          47.750  
> 2018  4 22 11 21 15.0688020  0  5                     
G 1  22893139.949       40359.879        2012.999          49.000  
G11  23555033.917       40536.551        2021.700          43.750  
G17  21219940.543      -46239.521       -2314.247          52.000  
G22  23066717.500       15775.456         812.811          46.250  
G28  20790529.962        6879.565         364.890          48.000  
> 2018  4 22 11 21 15.1688020  0  5                     
G 1  22895009.690       40561.210        2013.453          49.250  
G11  23556904.012       40738.766        2022.110          44.000  
G17  21221727.707      -46470.907       -2314.055          52.000  
G22  23068565.078       15856.723         812.740          46.500  
G28  20792370.117        6916.055         365.317          47.750  
> 2018  4 22 11 21 15.2688020  0  5                     
G 1  22896880.317       40762.607        2014.534          49.250  
G11  23558774.580       40941.055        2022.453          44.000  
G17  21223515.002      -46702.216       -2312.602          51.750  
G22  23070412.475       15938.088         813.940          46.500  
G28  20794207.068        6952.635         365.509          47.750  
> 2018  4 22 11 21 15.3688020  0  5                     
G 1  22898750.235       40964.075        2015.696          49.250  
G11  23560643.954       41143.377        2023.525          44.000  
G17  21225302.948      -46933.479       -2312.717          52.000  
G22  23072259.034       16019.490         814.120          46.250  
G28  20796045.958        6989.266         366.477          47.500  
> 2018  4 22 11 21 15.4688020  0  5                     
G 1  22900620.060       41165.574        2015.574          49.250  
G11  23562514.549       41345.761        2023.297          43.500  
G17  21227090.112      -47164.694       -2312.312          52.000  
G22  23074106.458       16100.959         815.230          46.000  
G28  20797884.865        7025.943         366.455          47.750  
> 2018  4 22 11 21 15.5688020  0  5                     
G 1  22902490.314       41367.067        2015.434          49.000  
G11  23564385.149       41548.131        2022.830          44.000  
G17  21228877.945      -47395.917       -2312.557          52.000  
G22  23075953.208       16182.402         813.806          46.250  
G28  20799722.181        7062.616         366.760          47.500  
> 2018  4 22 11 21 15.6688020  0  5                     
G 1  22904360.444       41568.579        2015.391          49.000  
G11  23566255.875       41750.519        2023.133          44.000  
G17  21230665.938      -47627.121       -2312.224          52.000  
G22  23077799.189       16263.882         814.796          46.500  
G28  20801561.987        7099.315         367.003          47.750  
> 2018  4 22 11 21 15.7688020  0  5                     
G 1  22906230.471       41770.101        2016.378          49.250  
G11  23568126.247       41952.909        2024.492          44.000  
G17  21232453.430      -47858.322       -2311.882          52.000  
G22  23079647.108       16345.362         814.595          46.250  
G28  20803400.108        7136.012         367.592          47.750  
> 2018  4 22 11 21 15.8688020  0  5                     
G 1  22908100.342       41971.590        2015.843          49.000  
G11  23569995.831       42155.291        2024.114          43.750  
G17  21234241.050      -48089.527       -2312.129          52.000  
G22  23081494.987       16426.847         814.911          46.250  
G28  20805238.608        7172.711         366.235          47.750  
> 2018  4 22 11 21 15.9688020  0  5                     
G 1  22909970.023       42173.041        2014.400          49.000  
G11  23571865.691       42357.627        2023.339          44.000  
G17  21236028.864      -48320.785       -2312.871          52.000  
G22  23083341.530       16508.266         814.111          46.500  
G28  20807077.832        7209.363         366.340          47.750  
> 2018  4 22 11 21 16.0688020  0  5                     
G 1  22911840.394       42374.473        2014.443          49.000  
G11  23573735.207       42559.936        2023.610          44.250  
G17  21237816.331      -48552.069       -2312.245          52.000  
G22  23085188.309       16589.678         813.978          46.250  
G28  20808914.426        7245.997         366.744          47.750  
> 2018  4 22 11 21 16.1688020  0  5                     
G 1  22913710.207       42575.924        2014.631          49.000  
G11  23575605.163       42762.268        2023.598          44.000  
G17  21239604.222      -48783.315       -2312.149          52.000  
G22  23087035.280       16671.130         815.680          46.500  
G28  20810754.671        7282.655         367.068          47.750  
> 2018  4 22 11 21 16.2688020  0  5                     
G 1  22915579.493       42777.412        2014.489          49.000  
G11  23577475.155       42964.630        2023.226          44.250  
G17  21241391.692      -49014.538       -2312.890          52.000  
G22  23088882.693       16752.601         814.268          46.500  
G28  20812593.272        7319.352         366.234          47.750  
> 2018  4 22 11 21 16.3688020  0  5                     
G 1  22917448.984       42978.860        2014.948          49.000  
G11  23579345.124       43166.952        2023.720          44.250  
G17  21243179.462      -49245.809       -2312.556          52.000  
G22  23090729.391       16834.018         814.146          46.500  
G28  20814430.777        7356.009         366.932          47.750  
> 2018  4 22 11 21 16.4688020  0  5                     
G 1  22919318.713       43180.246        2013.479          49.000  
G11  23581215.291       43369.208        2021.065          44.250  
G17  21244966.505      -49477.120       -2313.830          52.000  
G22  23092576.695       16915.416         812.615          46.750  
G28  20816271.693        7392.620         365.264          47.500  
> 2018  4 22 11 21 16.5688020  0  5                     
G 1  22921189.055       43381.586        2013.560          49.000  
G11  23583085.990       43571.432        2021.558          44.250  
G17  21246754.177      -49708.497       -2314.202          52.000  
G22  23094424.653       16996.746         813.161          46.500  
G28  20818108.620        7429.180         365.166          47.750  
> 2018  4 22 11 21 16.6688020  0  5                     
G 1  22923057.910       43582.896        2013.101          49.000  
G11  23584956.643       43773.610        2022.410          44.500  
G17  21248541.764      -49939.895       -2314.234          52.000  
G22  23096271.909       17078.058         812.878          46.500  
G28  20819947.334        7465.714         365.360          47.500  
> 2018  4 22 11 21 16.7688020  0  5                     
G 1  22924927.986       43784.187        2013.714          48.750  
G11  23586826.389       43975.796        2022.718          44.000  
G17  21250329.266      -50171.295       -2313.180          52.000  
G22  23098117.967       17159.352         813.146          46.500  
G28  20821786.835        7502.244         365.493          47.750  
> 2018  4 22 11 21 16.8688020  0  5                     
G 1  22926797.857       43985.512        2012.643          49.000  
G11  23588696.413       44177.981        2021.941          44.000  
G17  21252117.084      -50402.675       -2314.406          52.000  
G22  23099964.827       17240.698         812.783          46.250  
G28  20823624.240        7538.813         365.150          47.500  
> 2018  4 22 11 21 16.9688020  0  5                     
G 1  22928667.951       44186.816        2013.115          49.250  
G11  23590565.636       44380.150        2021.457          44.250  
G17  21253904.037      -50634.085       -2314.215          52.000  
G22  23101811.010       17322.008         813.287          46.500  
G28  20825464.317        7575.342         365.028          47.750  
> 2018  4 22 11 21 17.0688020  0  5                     
G 1  22930538.115       44388.083        2013.462          49.250  
G11  23592435.956       44582.298        2021.497          44.250  
G17  21255691.924      -50865.522       -2314.401          52.000  
G22  23103658.024       17403.283         812.408          46.250  
G28  20827302.074        7611.854         365.744          47.750  
> 2018  4 22 11 21 17.1688020  0  5                     
G 1  22932408.109       44589.366        2013.597          49.250  
G11  23594306.289       44784.463        2022.533          44.000  
G17  21257479.078      -51096.937       -2313.333          52.000  
G22  23105505.694       17484.591         812.965          46.250  
G28  20829140.158        7648.393         366.309          47.750  
> 2018  4 22 11 21 17.2688020  0  5                     
G 1  22934277.998       44790.741        2014.527          49.250  
G11  23596176.119       44986.702        2021.836          44.000  
G17  21259266.432      -51328.266       -2313.311          52.000  
G22  23107353.085       17565.992         814.141          46.750  
G28  20830980.351        7685.013         366.590          47.750  
> 2018  4 22 11 21 17.3688020  0  5                     
G 1  22936147.488       44992.188        2015.005          48.750  
G11  23598046.068       45189.019        2023.999          44.000  
G17  21261054.467      -51559.524       -2312.307          52.000  
G22  23109201.178       17647.460         814.907          46.500  
G28  20832817.512        7721.715         367.268          47.750  
> 2018  4 22 11 21 17.4688020  0  5                     
G 1  22938017.456       45193.702        2015.916          49.250  
G11  23599917.104       45391.391        2024.337          44.250  
G17  21262841.852      -51790.714       -2311.829          52.000  
G22  23111047.291       17729.021         817.027          46.500  
G28  20834656.804        7758.490         368.854          47.750  
> 2018  4 22 11 21 17.5688020  0  5                     
G 1  22939887.250       45395.271        2016.393          49.250  
G11  23601786.964       45593.855        2024.879          44.250  
G17  21264629.671      -52021.838       -2310.789          52.000  
G22  23112893.748       17810.617         817.116          46.250  
G28  20836495.586        7795.325         369.278          47.750  
> 2018  4 22 11 21 17.6688020  0  5                     
G 1  22941756.768       45596.926        2017.140          49.250  
G11  23603656.924       45796.380        2025.693          44.000  
G17  21266417.617      -52252.882       -2310.219          51.750  
G22  23114740.056       17892.315         817.274          46.250  
G28  20838333.335        7832.254         369.339          47.500  
> 2018  4 22 11 21 17.7688020  0  5                     
G 1  22943626.346       45798.597        2017.440          49.000  
G11  23605527.784       45998.920        2026.514          43.750  
G17  21268205.017      -52483.915       -2310.154          51.750  
G22  23116588.153       17974.015         817.125          46.500  
G28  20840174.086        7869.181         369.219          47.750  
> 2018  4 22 11 21 17.8688020  0  5                     
G 1  22945496.743       46000.283        2017.225          49.000  
G11  23607398.101       46201.486        2026.402          44.000  
G17  21269992.753      -52714.914       -2310.301          51.750  
G22  23118435.807       18055.756         817.030          46.250  
G28  20842010.820        7906.158         369.578          47.500  
> 2018  4 22 11 21 17.9688020  0  5                     
G 1  22947366.725       46202.001        2017.537          49.000  
G11  23609268.172       46404.060        2025.913          44.000  
G17  21271780.164      -52945.898       -2309.717          52.000  
G22  23120282.109       18137.522         817.879          46.000  
G28  20843849.598        7943.149         369.838          47.750  
> 2018  4 22 11 21 18.0688020  0  5                     
G 1  22949237.297       46403.692        2016.715          49.000  
G11  23611136.572       46606.560        1972.028          44.250  
G17  21273568.093      -53176.905       -2310.622          52.000  
G22  23122129.230       18219.276         817.743          46.500  
G28  20845688.469        7980.125         369.024          48.000  
> 2018  4 22 11 21 18.2688020  0  5                     
G 1  22952976.490       46807.078        2017.277          49.000  
G11  23614876.166       47011.755        2026.207          43.500  
G17  21277143.239      -53638.903       -2309.678          52.000  
G22  23125823.741       18382.766         817.357          46.500  
G28  20849366.292        8054.094         369.182          47.750  
> 2018  4 22 11 21 18.3688020  0  5                     
G 1  22954846.177       47008.696        2015.483          49.000  
G11  23616745.210       47214.258        2024.637          44.000  
G17  21278931.026      -53869.975       -2311.148          52.000  
G22  23127670.921       18464.467         816.827          46.250  
G28  20851204.582        8091.023         368.783          47.750  
> 2018  4 22 11 21 18.4688020  0  5                     
G 1  22956715.891       47210.274        2015.240          49.000  
G11  23618615.543       47416.707        2024.092          44.250  
G17  21280718.286      -54101.088       -2311.585          52.000  
G22  23129517.676       18546.124         816.575          46.250  
G28  20853042.707        8127.915         368.715          47.750  
> 2018  4 22 11 21 18.5688020  0  5                     
G 1  22958585.380       47411.812        2014.826          49.000  
G11  23620487.244       47619.115        2023.695          43.750  
G17  21282506.100      -54332.240       -2312.240          52.000  
G22  23131363.950       18627.714         814.812          46.250  
G28  20854882.499        8164.759         367.829          48.000  
> 2018  4 22 11 21 18.6688020  0  5                     
G 1  22960455.980       47613.247        2013.770          49.000  
G11  23622357.811       47821.407        2022.618          43.750  
G17  21284293.392      -54563.503       -2313.081          52.000  
G22  23133211.246       18709.224         813.834          46.500  
G28  20856719.295        8201.494         366.567          48.000  
> 2018  4 22 11 21 18.7688020  0  5                     
G 1  22962325.466       47814.599        2013.944          49.000  
G11  23624227.700       48023.632        2021.800          43.750  
G17  21286080.689      -54794.830       -2313.114          51.750  
G22  23135058.693       18790.667         814.645          46.500  
G28  20858558.716        8238.163         366.566          48.000  
> 2018  4 22 11 21 18.8688020  0  5                     
G 1  22964195.566       48015.934        2012.897          48.750  
G11  23626097.304       48225.846        2022.190          43.750  
G17  21287868.558      -55026.182       -2313.581          51.750  
G22  23136905.906       18872.086         814.464          46.250  
G28  20860396.949        8274.817         366.095          48.000  
> 2018  4 22 11 21 18.9688020  0  5                     
G 1  22966065.341       48217.239        2012.721          49.000  
G11  23627967.214       48428.002        2021.895          43.500  
G17  21289655.914      -55257.576       -2314.020          52.000  
G22  23138753.409       18953.462         813.604          46.500  
G28  20862235.061        8311.437         366.215          47.750  
> 2018  4 22 11 21 19.0688020  0  5                     
G 1  22967935.351       48418.480        2012.151          48.750  
G11  23629836.943       48630.122        2020.039          43.500  
G17  21291443.696      -55489.022       -2314.898          51.750  
G22  23140600.761       19034.798         812.681          46.500  
G28  20864075.037        8348.013         365.926          47.750  
> 2018  4 22 11 21 19.1688020  0  5                     
G 1  22969805.404       48619.664        2011.626          49.000  
G11  23631705.811       48832.169        2021.091          43.500  
G17  21293231.303      -55720.538       -2315.886          52.000  
G22  23142448.399       19116.073         811.864          46.750  
G28  20865911.872        8384.514         364.858          48.000  
> 2018  4 22 11 21 19.2688020  0  5                     
G 1  22971675.180       48820.808        2011.329          49.000  
G11  23633576.206       49034.184        2020.559          43.750  
G17  21295018.804      -55952.084       -2316.161          52.250  
G22  23144294.623       19197.324         812.299          46.500  
G28  20867750.450        8421.000         364.821          47.750  
> 2018  4 22 11 21 19.3688020  0  5                     
G 1  22973544.806       49021.958        2011.889          48.750  
G11  23635446.094       49236.202        2020.341          43.750  
G17  21296806.083      -56183.600       -2314.876          52.250  
G22  23146142.324       19278.575         813.213          46.750  
G28  20869590.175        8457.498         365.347          47.750  
> 2018  4 22 11 21 19.4688020  0  5                     
G 1  22975414.619       49223.215        2012.832          49.000  
G11  23637316.594       49438.337        2022.018          43.750  
G17  21298593.029      -56415.030       -2314.178          51.750  
G22  23147988.491       19359.932         813.580          46.500  
G28  20871427.200        8494.098         366.437          48.000  
> 2018  4 22 11 21 19.5688020  0  5                     
G 1  22977284.347       49424.527        2013.279          49.000  
G11  23639185.972       49640.517        2021.953          44.000  
G17  21300380.798      -56646.399       -2313.678          51.750  
G22  23149835.124       19441.360         814.233          46.500  
G28  20873266.793        8530.753         366.118          48.000  
> 2018  4 22 11 21 19.6688020  0  5                     
G 1  22979154.104       49625.985        2014.715          48.750  
G11  23641056.409       49842.839        2024.328          44.000  
G17  21302168.428      -56877.630       -2312.066          51.750  
G22  23151683.088       19522.921         815.941          46.500  
G28  20875104.375        8567.561         368.282          47.750  
> 2018  4 22 11 21 19.7688020  0  5                     
G 1  22981023.432       49827.442        2014.804          48.750  
G11  23642925.856       50045.175        2023.146          43.750  
G17  21303956.258      -57108.851       -2312.180          52.250  
G22  23153529.893       19604.507         815.144          46.500  
G28  20876941.963        8604.383         367.958          47.750  
> 2018  4 22 11 21 19.8688020  0  5                     
G 1  22982893.879       50028.980        2015.348          48.750  
G11  23644797.340       50247.559        2023.966          44.250  
G17  21305743.998      -57339.998       -2311.510          52.000  
G22  23155377.551       19686.170         816.459          46.500  
G28  20878782.915        8641.272         368.732          47.750  
> 2018  4 22 11 21 19.9688020  0  5                     
G 1  22984763.942       50230.533        2015.616          48.750  
G11  23646666.975       50449.985        2025.127          44.000  
G17  21307531.519      -57571.130       -2311.235          52.000  
G22  23157224.588       19767.842         816.904          46.500  
G28  20880620.391        8678.200         369.500          48.000  
> 2018  4 22 11 21 20.0688020  0  5                     
G 1  22986633.904       50432.054        2015.356          49.000  
G11  23648537.832       50652.379        2023.574          43.750  
G17  21309319.446      -57802.288       -2311.653          52.000  
G22  23159071.077       19849.489         816.842          46.750  
G28  20882460.032        8715.092         368.920          48.250  
> 2018  4 22 11 21 20.1688020  0  5                     
G 1  22988503.539       50633.580        2015.220          49.000  
G11  23650407.960       50854.761        2024.448          44.000  
G17  21311106.775      -58033.451       -2312.323          52.000  
G22  23160918.831       19931.133         816.074          46.250  
G28  20884298.948        8751.977         369.380          47.750  
> 2018  4 22 11 21 20.2688020  0  5                     
G 1  22990374.140       50835.061        2014.993          48.250  
G11  23652278.458       51057.112        2024.094          43.500  
G17  21312894.263      -58264.634       -2311.996          51.500  
G22  23162765.871       20012.757         816.041          46.500  
G28  20886136.796        8788.840         368.944          47.750  
> 2018  4 22 11 21 20.3688020  0  5                     
G 1  22992243.715       51036.518        2014.627          48.750  
G11  23654147.801       51259.443        2023.018          43.750  
G17  21314682.307      -58495.865       -2311.816          51.750  
G22  23164614.043       20094.350         816.241          46.750  
G28  20887977.335        8825.676         368.231          47.750  
> 2018  4 22 11 21 20.4688020  0  5                     
G 1  22994112.598       51237.955        2014.259          48.750  
