     3.02           OBSERVATION DATA    M: Mixed            RINEX VERSION / TYPE
GNSS-SDRLIB v1.1                        20180429 101919 UTC PGM / RUN BY / DATE 
                                                            MARKER NAME         
                                                            MARKER NUMBER       
                                                            MARKER TYPE         
                                                            OBSERVER / AGENCY   
GNSS-SDRLIB         GNSS-SDRLIB         1.1                 REC # / TYPE / VERS 
                                                            ANT # / TYPE        
        0.0000        0.0000        0.0000                  APPROX POSITION XYZ 
        0.0000        0.0000        0.0000                  ANTENNA: DELTA H/E/N
G    4 C1C L1C D1C S1C                                      SYS / # / OBS TYPES 
R    4 C1C L1C D1C S1C                                      SYS / # / OBS TYPES 
E    4 C1C L1C D1C S1C                                      SYS / # / OBS TYPES 
J    4 C1C L1C D1C S1C                                      SYS / # / OBS TYPES 
S    4 C1C L1C D1C S1C                                      SYS / # / OBS TYPES 
C    4 C1C L1C D1C S1C                                      SYS / # / OBS TYPES 
  1970     1     1     0     0    0.0000000     GPS         TIME OF FIRST OBS   
  1970     1     1     0     0    0.0000000     GPS         TIME OF LAST OBS    
G                                                           SYS / PHASE SHIFT   
R                                                           SYS / PHASE SHIFT   
E                                                           SYS / PHASE SHIFT   
J                                                           SYS / PHASE SHIFT   
S                                                           SYS / PHASE SHIFT   
C                                                           SYS / PHASE SHIFT   
  0                                                         GLONASS SLOT / FRQ #
 C1C    0.000 C1P    0.000 C2C    0.000 C2P    0.000        GLONASS COD/PHS/BIS 
                                                            END OF HEADER       
> 2018  4 22  0  0 14.6688020  0  1                     
G 3                     -8541.163        -833.753          42.750  
> 2018  4 22 11 21  6.1688020  0  1                     
G 3  20626900.428       -8566.570        -830.743          42.250  
> 2018  4 22 11 21  6.0688020  0  2                     
G 1  22000412.485       22082.099        1995.225          48.750  
G 3  20625066.338       -8483.927        -830.700          42.250  
> 2018  4 22 11 21  6.1688020  0  2                     
G 1  22002300.521       22282.632        2004.124          49.000  
G 3  20626900.428       -8566.570        -830.743          42.250  
> 2018  4 22 11 21  6.0688020  0  3                     
G 1  22000412.485       22082.175        2003.761          49.000  
G 3  20625066.338       -8483.927        -830.700          42.250  
G11  22662290.697       16119.484        2028.003          44.250  
> 2018  4 22 11 21  6.1688020  0  3                     
G 1  22002300.521       22282.632        2004.124          49.000  
G 3  20626900.428       -8566.570        -830.743          42.250  
G11  22664179.246       16311.933        2012.653          44.500  
> 2018  4 22 11 21  6.2688020  0  3                     
G 1  22004170.106       22483.134        2005.397          49.000  
G 3  20628717.233       -8649.661        -830.684          42.500  
G11  22666050.156       16513.467        2014.193          44.250  
> 2018  4 22 11 21  6.3688020  0  3                     
G 1  22006040.105       22683.736        2006.165          48.750  
G 3  20630532.025       -8732.621        -830.224          42.750  
G11  22667920.167       16714.972        2015.283          44.250  
> 2018  4 22 11 21  6.4688020  0  3                     
G 1  22007910.605       22884.392        2007.185          49.000  
G 3  20632347.307       -8815.523        -828.050          42.500  
G11  22669789.845       16916.521        2016.041          44.250  
> 2018  4 22 11 21  6.5688020  0  3                     
G 1  22009780.373       23085.084        2006.749          49.000  
G 3  20634164.501       -8898.389        -828.532          42.750  
G11  22671659.092       17118.112        2015.726          44.500  
> 2018  4 22 11 21  6.6688020  0  3                     
G 1  22011650.144       23285.809        2008.401          49.000  
G 3  20635980.072       -8981.215        -828.328          42.000  
G11  22673530.058       17319.755        2017.090          44.250  
> 2018  4 22 11 21  6.7688020  0  3                     
G 1  22013520.411       23486.642        2008.764          49.000  
G 3  20637795.886       -9063.915        -825.838          42.750  
G11  22675400.323       17521.480        2017.883          44.250  
> 2018  4 22 11 21  6.8688020  0  3                     
G 1  22015390.169       23687.513        2008.304          49.000  
G 3  20639611.887       -9146.600        -826.240          42.500  
G11  22677270.154       17723.253        2017.239          44.500  
> 2018  4 22 11 21  6.9688020  0  3                     
G 1  22017259.353       23888.441        2009.524          49.000  
G 3  20641426.351       -9229.193        -826.036          42.500  
G11  22679140.464       17925.078        2018.379          44.000  
> 2018  4 22 11 21  7.0688020  0  3                     
G 1  22019129.045       24089.377        2009.516          48.750  
G 3  20643241.766       -9311.826        -825.875          42.250  
G11  22681011.169       18126.910        2018.303          44.000  
> 2018  4 22 11 21  7.1688020  0  3                     
G 1  22020998.672       24290.333        2009.052          49.000  
G 3  20645058.696       -9394.380        -825.680          42.000  
G11  22682880.854       18328.772        2018.853          44.000  
> 2018  4 22 11 21  7.2688020  0  3                     
G 1  22022868.834       24491.255        2009.028          49.000  
G 3  20646874.850       -9476.967        -825.922          42.000  
G11  22684750.871       18530.583        2017.583          44.000  
> 2018  4 22 11 21  7.3688020  0  3                     
G 1  22024738.356       24692.153        2008.591          49.250  
G 3  20648690.159       -9559.584        -826.828          42.500  
G11  22686621.290       18732.382        2017.074          44.000  
> 2018  4 22 11 21  7.4688020  0  3                     
G 1  22026608.412       24893.068        2010.572          49.000  
G 3  20650505.729       -9642.188        -825.745          42.250  
G11  22688491.413       18934.208        2019.255          44.000  
> 2018  4 22 11 21  7.5688020  0  3                     
G 1  22028478.520       25094.025        2009.628          49.000  
G 3  20652321.816       -9724.730        -825.482          42.750  
G11  22690360.393       19136.060        2018.490          44.250  
> 2018  4 22 11 21  7.6688020  0  3                     
G 1  22030348.644       25294.968        2009.372          49.000  
G 3  20654137.246       -9807.295        -826.516          42.750  
G11  22692230.502       19337.882        2018.973          44.250  
> 2018  4 22 11 21  7.7688020  0  3                     
G 1  22032219.294       25495.870        2009.713          48.750  
G 3  20655953.651       -9889.882        -825.586          42.750  
G11  22694100.242       19539.683        2018.045          44.250  
> 2018  4 22 11 21  7.8688020  0  3                     
G 1  22034089.159       25696.747        2008.220          49.000  
G 3  20657769.597       -9972.497        -827.273          42.750  
G11  22695970.077       19741.461        2016.895          44.000  
> 2018  4 22 11 21  7.9688020  0  3                     
G 1  22035959.539       25897.629        2009.086          48.750  
G 3  20659585.385      -10055.083        -825.233          43.000  
G11  22697841.588       19943.233        2017.664          44.000  
> 2018  4 22 11 21  8.0688020  0  3                     
G 1  22037829.135       26098.489        2008.459          49.000  
G 3  20661400.951      -10137.679        -826.468          42.500  
G11  22699711.477       20145.020        2017.553          44.250  
> 2018  4 22 11 21  8.1688020  0  3                     
G 1  22039698.565       26299.345        2008.854          49.000  
G 3  20663216.305      -10220.295        -825.807          42.750  
G11  22701581.154       20346.760        2017.087          44.000  
> 2018  4 22 11 21  8.2688020  0  3                     
G 1  22041567.820       26500.223        2009.471          49.000  
G 3  20665032.257      -10302.890        -824.539          42.750  
G11  22703451.694       20548.527        2018.393          44.250  
> 2018  4 22 11 21  8.3688020  0  3                     
G 1  22043437.422       26701.140        2009.368          49.000  
G 3  20666847.898      -10385.413        -824.934          43.000  
G11  22705320.636       20750.355        2018.586          44.250  
> 2018  4 22 11 21  8.4688020  0  3                     
G 1  22045306.907       26902.017        2009.027          49.000  
G 3  20668664.158      -10468.000        -825.933          42.500  
G11  22707190.195       20952.128        2017.982          44.250  
> 2018  4 22 11 21  8.5688020  0  3                     
G 1  22047177.005       27102.932        2009.676          49.250  
G 3  20670479.972      -10550.513        -824.778          42.500  
G11  22709060.386       21153.935        2018.248          44.000  
> 2018  4 22 11 21  8.6688020  0  3                     
G 1  22049046.106       27303.840        2009.191          49.000  
G 3  20672297.007      -10633.032        -825.181          42.250  
G11  22710931.135       21355.753        2018.521          44.500  
> 2018  4 22 11 21  8.7688020  0  3                     
G 1  22050915.469       27504.713        2008.635          49.000  
G 3  20674111.922      -10715.625        -826.565          42.000  
G11  22712802.370       21557.493        2017.075          44.500  
> 2018  4 22 11 21  8.8688020  0  3                     
G 1  22052785.593       27705.524        2008.689          49.000  
G 3  20675927.214      -10798.244        -825.146          41.750  
G11  22714671.765       21759.215        2017.663          44.500  
> 2018  4 22 11 21  8.9688020  0  3                     
G 1  22054655.447       27906.355        2008.189          49.000  
G 3  20677742.734      -10880.865        -826.966          42.250  
G11  22716541.922       21960.945        2017.068          44.250  
> 2018  4 22 11 21  9.0688020  0  3                     
G 1  22056525.607       28107.200        2008.115          49.000  
G 3  20679558.112      -10963.386        -824.843          42.750  
G11  22718411.347       22162.692        2016.868          44.250  
> 2018  4 22 11 21  9.1688020  0  3                     
G 1  22058395.802       28308.054        2008.191          48.750  
G 3  20681374.388      -11045.968        -825.836          43.000  
G11  22720280.483       22364.437        2016.725          44.250  
> 2018  4 22 11 21  9.2688020  0  3                     
G 1  22060265.301       28508.893        2008.112          48.750  
G 3  20683190.837      -11128.530        -826.356          42.500  
G11  22722150.867       22566.190        2017.194          44.250  
> 2018  4 22 11 21  9.3688020  0  3                     
G 1  22062134.735       28709.712        2008.765          49.000  
G 3  20685006.395      -11211.105        -825.723          42.000  
G11  22724020.643       22767.888        2016.723          44.500  
> 2018  4 22 11 21  9.4688020  0  3                     
G 1  22064004.312       28910.539        2008.223          49.250  
G 3  20686822.113      -11293.649        -825.497          41.750  
G11  22725890.972       22969.599        2017.516          44.250  
> 2018  4 22 11 21  9.5688020  0  3                     
G 1  22065874.088       29111.319        2008.140          49.000  
G 3  20688638.514      -11376.293        -825.995          41.000  
G11  22727760.846       23171.267        2017.045          44.000  
> 2018  4 22 11 21  9.6688020  0  3                     
G 1  22067743.955       29311.997        2006.781          49.000  
G 3  20690454.887      -11459.021        -827.725          41.750  
G11  22729631.198       23372.852        2015.233          44.250  
> 2018  4 22 11 21  9.7688020  0  3                     
G 1  22069613.094       29512.644        2006.009          49.000  
G 3  20692270.222      -11541.760        -827.981          43.000  
G11  22731500.991       23574.386        2014.711          44.500  
> 2018  4 22 11 21  9.8688020  0  3                     
G 1  22071482.886       29713.269        2006.491          49.250  
G 3  20694086.515      -11624.485        -828.145          43.000  
G11  22733370.719       23775.918        2015.329          44.750  
> 2018  4 22 11 21  9.9688020  0  3                     
G 1  22073352.917       29913.842        2005.898          48.750  
G 3  20695903.638      -11707.260        -828.339          42.500  
G11  22735241.605       23977.373        2014.661          44.250  
> 2018  4 22 11 21 10.0688020  0  3                     
G 1  22075222.950       30114.359        2004.847          49.000  
G 3  20697719.274      -11790.104        -829.173          42.250  
G11  22737111.876       24178.779        2014.017          44.250  
> 2018  4 22 11 21 10.1688020  0  3                     
G 1  22077093.079       30314.844        2004.730          49.000  
G 3  20699534.591      -11872.992        -829.411          42.250  
G11  22738981.134       24380.163        2014.058          44.000  
> 2018  4 22 11 21 10.2688020  0  3                     
G 1  22078962.702       30515.256        2003.820          49.000  
G 3  20701349.491      -11955.937        -829.096          42.250  
G11  22740851.073       24581.456        2012.831          44.000  
> 2018  4 22 11 21 10.3688020  0  3                     
G 1  22080832.716       30715.657        2004.346          49.000  
G 3  20703166.251      -12038.869        -828.279          43.250  
G11  22742720.832       24782.761        2013.703          44.250  
> 2018  4 22 11 21 10.4688020  0  3                     
G 1  22082702.263       30916.102        2004.099          49.000  
G 3  20704982.546      -12121.751        -828.281          43.500  
G11  22744590.316       24984.101        2014.178          44.250  
> 2018  4 22 11 21 10.5688020  0  3                     
G 1  22084571.773       31116.538        2004.966          49.250  
G 3  20706797.989      -12204.648        -829.198          42.500  
G11  22746459.133       25185.424        2013.229          44.250  
> 2018  4 22 11 21 10.6688020  0  3                     
G 1  22086441.567       31317.007        2005.254          49.000  
G 3  20708612.936      -12287.531        -827.109          41.000  
G11  22748329.775       25386.771        2014.668          44.250  
> 2018  4 22 11 21 10.7688020  0  3                     
G 1  22088311.184       31517.473        2004.838          49.250  
G 3  20710428.021      -12370.407        -829.382          42.500  
G11  22750199.636       25588.130        2013.308          44.000  
> 2018  4 22 11 21 10.8688020  0  3                     
G 1  22090181.080       31717.956        2005.178          49.250  
G 3  20712245.689      -12453.226        -828.198          43.500  
G11  22752069.611       25789.489        2013.397          44.500  
> 2018  4 22 11 21 10.9688020  0  3                     
G 1  22092050.954       31918.453        2005.022          49.250  
G 3  20714062.481      -12536.028        -828.093          42.750  
G11  22753940.337       25990.897        2013.931          44.000  
> 2018  4 22 11 21 11.0688020  0  3                     
G 1  22093920.958       32118.939        2005.055          49.250  
G 3  20715877.259      -12618.874        -828.548          42.500  
G11  22755808.895       26192.253        2013.362          44.250  
> 2018  4 22 11 21 11.1688020  0  3                     
G 1  22095790.592       32319.439        2005.409          49.250  
G 3  20717692.417      -12701.641        -826.405          42.000  
G11  22757677.455       26393.645        2013.593          43.750  
> 2018  4 22 11 21 11.2688020  0  3                     
G 1  22097659.734       32519.956        2005.447          49.000  
G 3  20719508.522      -12784.441        -827.359          42.500  
G11  22759547.647       26595.053        2014.873          43.750  
> 2018  4 22 11 21 11.3688020  0  3                     
G 1  22099529.273       32720.459        2005.213          49.000  
G 3  20721324.968      -12867.243        -828.586          42.500  
G11  22761416.394       26796.451        2014.136          44.000  
> 2018  4 22 11 21 11.4688020  0  3                     
G 1  22101399.250       32920.934        2004.705          49.000  
G 3  20723140.304      -12950.048        -828.877          42.250  
G11  22763286.208       26997.817        2013.375          44.000  
> 2018  4 22 11 21 11.5688020  0  3                     
G 1  22103269.698       33121.421        2004.881          48.750  
G 3  20724955.475      -13032.835        -828.350          42.750  
G11  22765156.625       27199.183        2014.145          43.750  
> 2018  4 22 11 21 11.6688020  0  3                     
G 1  22105138.812       33321.914        2005.031          49.000  
G 3  20726771.368      -13115.613        -828.031          42.750  
G11  22767025.937       27400.558        2014.305          44.000  
> 2018  4 22 11 21 11.7688020  0  3                     
G 1  22107008.050       33522.417        2005.295          49.000  
G 3  20728588.418      -13198.367        -827.797          42.500  
G11  22768896.234       27601.964        2014.462          44.000  
> 2018  4 22 11 21 11.8688020  0  3                     
G 1  22108877.760       33722.924        2005.726          49.250  
G 3  20730403.186      -13281.142        -826.929          42.500  
G11  22770766.109       27803.356        2014.715          44.000  
> 2018  4 22 11 21 11.9688020  0  3                     
G 1  22110747.523       33923.490        2006.161          49.000  
G 3  20732218.936      -13363.824        -826.236          43.000  
G11  22772635.861       28004.820        2015.221          44.250  
> 2018  4 22 11 21 12.0688020  0  3                     
G 1  22112617.574       34124.101        2007.567          49.250  
G 3  20734035.850      -13446.463        -825.936          42.500  
G11  22774506.558       28206.502        2026.713          44.000  
> 2018  4 22 11 21 12.1688020  0  3                     
G 1  22114487.507       34324.859        2007.964          49.250  
G 3  20735851.132      -13528.939        -825.357          42.500  
G11  22776376.805       28407.893        1987.400          44.250  
> 2018  4 22 11 21 12.2688020  0  3                     
G 1  22116357.719       34525.595        2007.793          49.250  
G 3  20737667.932      -13611.457        -825.417          42.500  
G11  22778247.320       28609.576        2015.666          44.000  
> 2018  4 22 11 21 12.3688020  0  3                     
G 1  22118228.324       34726.451        2009.250          49.000  
G 3  20739483.845      -13693.831        -822.996          42.500  
G11  22780117.594       28811.306        2017.009          44.000  
> 2018  4 22 11 21 12.4688020  0  3                     
G 1  22120097.407       34927.349        2008.630          49.000  
G 3  20741299.001      -13776.157        -822.072          42.500  
G11  22781987.295       29013.114        2018.830          44.000  
> 2018  4 22 11 21 12.5688020  0  3                     
G 1  22121966.725       35128.322        2009.702          49.000  
G 3  20743114.245      -13858.421        -822.255          42.500  
G11  22783856.668       29214.962        2019.000          44.000  
> 2018  4 22 11 21 12.6688020  0  3                     
G 1  22123836.441       35329.326        2010.732          49.000  
G 3  20744930.461      -13940.609        -821.652          42.250  
G11  22785726.026       29416.863        2019.506          44.000  
> 2018  4 22 11 21 12.7688020  0  3                     
G 1  22125706.050       35530.434        2011.227          49.250  
G 3  20746746.349      -14022.740        -820.952          42.250  
G11  22787596.184       29618.829        2019.881          43.750  
> 2018  4 22 11 21 12.8688020  0  3                     
G 1  22127576.527       35731.712        2013.609          48.500  
G 3  20748562.340      -14104.657        -817.651          42.500  
G11  22789465.133       29821.006        2022.864          43.750  
> 2018  4 22 11 21 12.9688020  0  3                     
G 1  22129446.809       35933.193        2015.072          49.000  
G 3  20750379.038      -14186.381        -816.425          42.250  
G11  22791336.047       30023.355        2024.295          43.750  
> 2018  4 22 11 21 13.0688020  0  3                     
G 1  22131316.812       36134.840        2017.177          49.250  
G 3  20752194.237      -14267.946        -814.719          42.250  
G11  22793206.556       30225.874        2025.694          44.000  
> 2018  4 22 11 21 13.1688020  0  3                     
G 1  22133186.548       36336.583        2017.733          49.250  
G 3  20754011.344      -14349.398        -814.100          42.250  
G11  22795076.611       30428.521        2026.491          44.000  
> 2018  4 22 11 21 13.2688020  0  3                     
G 1  22135056.804       36538.377        2018.492          49.250  
G 3  20755827.680      -14430.779        -813.122          43.000  
G11  22796947.003       30631.191        2026.589          43.750  
> 2018  4 22 11 21 13.3688020  0  3                     
G 1  22136926.365       36740.188        2017.679          49.250  
G 3  20757643.482      -14512.134        -814.166          42.500  
G11  22798817.169       30833.889        2025.805          44.000  
> 2018  4 22 11 21 13.4688020  0  3                     
G 1  22138795.942       36941.950        2016.967          49.000  
G 3  20759460.105      -14593.547        -814.908          42.500  
G11  22800686.132       31036.528        2024.981          44.000  
> 2018  4 22 11 21 13.5688020  0  3                     
G 1  22140666.466       37143.564        2016.339          49.000  
G 3  20761276.133      -14675.093        -815.208          42.250  
G11  22802556.721       31239.037        2025.367          44.000  
> 2018  4 22 11 21 13.6688020  0  3                     
G 1  22142536.464       37345.144        2015.594          49.000  
G 3  20763091.850      -14756.686        -816.135          42.000  
G11  22804427.135       31441.488        2024.222          44.250  
> 2018  4 22 11 21 13.7688020  0  3                     
G 1  22144405.957       37546.657        2015.604          48.750  
G 3  20764907.659      -14838.329        -816.904          42.750  
G11  22806296.762       31643.914        2024.690          44.000  
> 2018  4 22 11 21 13.8688020  0  3                     
G 1  22146276.002       37748.142        2014.975          49.000  
G 3  20766723.421      -14919.992        -816.436          43.000  
G11  22808167.075       31846.253        2023.836          43.750  
> 2018  4 22 11 21 13.9688020  0  3                     
G 1  22148146.052       37949.602        2014.513          49.000  
G 3  20768539.235      -15001.675        -817.445          42.250  
G11  22810037.578       32048.614        2024.112          44.250  
> 2018  4 22 11 21 14.0688020  0  3                     
G 1  22150015.498       38151.012        2013.944          49.250  
G 3  20770355.854      -15083.427        -817.270          43.000  
G11  22811907.924       32250.901        2023.007          44.000  
> 2018  4 22 11 21 14.1688020  0  3                     
G 1  22151885.340       38352.417        2014.262          49.000  
G 3  20772172.438      -15165.143        -817.758          42.500  
G11  22813777.042       32453.190        2023.510          43.750  
> 2018  4 22 11 21 14.2688020  0  3                     
G 1  22153755.209       38553.847        2014.403          49.250  
G 3  20773988.229      -15246.837        -816.396          42.250  
G11  22815646.595       32655.492        2022.718          43.750  
> 2018  4 22 11 21 14.3688020  0  3                     
G 1  22155624.921       38755.208        2014.026          49.000  
G 3  20775803.619      -15328.598        -817.763          42.250  
G11  22817516.885       32857.746        2022.627          43.750  
> 2018  4 22 11 21 14.4688020  0  3                     
G 1  22157494.817       38956.599        2013.596          49.250  
G 3  20777619.444      -15410.324        -817.878          42.250  
G11  22819386.252       33060.013        2022.502          44.000  
> 2018  4 22 11 21 14.5688020  0  3                     
G 1  22159364.340       39157.953        2013.591          49.250  
G 3  20779434.770      -15492.086        -817.515          42.250  
G11  22821256.131       33262.249        2022.230          44.000  
> 2018  4 22 11 21 14.6688020  0  3                     
G 1  22161234.724       39359.227        2012.973          49.250  
G 3  20781250.719      -15573.928        -818.749          42.750  
G11  22823126.431       33464.400        2022.840          43.750  
> 2018  4 22 11 21 14.7688020  0  3                     
G 1  22163104.241       39560.493        2012.385          49.000  
G 3  20783067.923      -15655.754        -819.314          42.250  
G11  22824998.478       33666.542        2020.940          43.750  
> 2018  4 22 11 21 14.8688020  0  3                     
G 1  22164974.739       39761.716        2011.458          49.000  
G 3  20784883.800      -15737.602        -819.407          42.250  
G11  22826868.504       33868.647        2020.213          44.000  
> 2018  4 22 11 21 14.9688020  0  3                     
G 1  22166845.111       39962.932        2012.643          49.250  
G 3  20786699.658      -15819.491        -818.557          42.250  
G11  22828738.986       34070.759        2022.759          44.000  
> 2018  4 22 11 21 15.0688020  0  3                     
G 1  22168714.796       40164.244        2012.802          49.000  
G 3  20788515.358      -15901.271        -818.112          42.250  
G11  22830608.734       34272.932        2021.825          43.750  
> 2018  4 22 11 21 15.1688020  0  3                     
G 1  22170584.539       40365.575        2013.175          49.250  
G 3  20790330.393      -15983.009        -817.832          42.250  
G11  22832478.835       34475.147        2022.093          44.250  
> 2018  4 22 11 21 15.2688020  0  3                     
G 1  22172455.169       40566.978        2014.757          49.250  
G 3  20792145.363      -16064.694        -816.227          42.250  
G11  22834349.397       34677.437        2022.413          44.000  
> 2018  4 22 11 21 15.3688020  0  3                     
G 1  22174325.088       40768.444        2015.145          49.250  
G 3  20793963.135      -16146.290        -815.460          42.250  
G11  22836218.767       34879.763        2023.770          43.750  
> 2018  4 22 11 21 15.4688020  0  3                     
G 1  22176194.916       40969.943        2015.066          49.250  
G 3  20795779.999      -16227.855        -815.574          42.250  
G11  22838089.368       35082.146        2023.503          43.500  
> 2018  4 22 11 21 15.5688020  0  3                     
G 1  22178065.171       41171.439        2015.417          49.000  
G 3  20797596.064      -16309.425        -815.753          42.250  
G11  22839959.970       35284.516        2022.913          44.250  
> 2018  4 22 11 21 15.6688020  0  3                     
G 1  22179935.306       41372.949        2015.149          49.000  
G 3  20799412.076      -16390.956        -815.758          42.250  
G11  22841830.699       35486.903        2023.168          44.000  
> 2018  4 22 11 21 15.7688020  0  3                     
G 1  22181805.335       41574.470        2015.610          49.250  
G 3  20801227.668      -16472.481        -814.867          42.500  
G11  22843701.068       35689.298        2024.746          44.000  
> 2018  4 22 11 21 15.8688020  0  3                     
G 1  22183675.233       41775.963        2015.849          49.000  
G 3  20803042.279      -16554.026        -815.500          42.250  
G11  22845570.653       35891.676        2024.073          44.000  
> 2018  4 22 11 21 15.9688020  0  3                     
G 1  22185544.903       41977.410        2014.501          49.000  
G 3  20804859.847      -16635.609        -815.917          42.000  
G11  22847440.483       36094.011        2023.398          44.000  
> 2018  4 22 11 21 16.0688020  0  3                     
G 1  22187415.278       42178.841        2014.207          49.000  
G 3  20806676.164      -16717.202        -815.703          42.000  
G11  22849309.969       36296.319        2023.490          44.000  
> 2018  4 22 11 21 16.1688020  0  3                     
G 1  22189285.093       42380.296        2014.942          49.000  
G 3  20808493.105      -16798.769        -815.781          42.250  
G11  22851179.923       36498.654        2023.678          44.250  
> 2018  4 22 11 21 16.2688020  0  3                     
G 1  22191154.385       42581.780        2014.284          49.000  
G 3  20810308.734      -16880.299        -815.467          42.250  
G11  22853049.879       36701.014        2023.174          44.250  
> 2018  4 22 11 21 16.3688020  0  3                     
G 1  22193023.887       42783.228        2014.664          49.000  
G 3  20812123.837      -16961.874        -815.044          42.250  
G11  22854919.844       36903.335        2023.609          44.250  
> 2018  4 22 11 21 16.4688020  0  3                     
G 1  22194893.619       42984.614        2013.810          49.000  
G 3  20813939.696      -17043.487        -816.375          42.250  
G11  22856790.004       37105.589        2021.310          44.250  
> 2018  4 22 11 21 16.5688020  0  3                     
G 1  22196763.908       43185.952        2013.314          49.000  
G 3  20815755.453      -17125.169        -817.330          42.000  
G11  22858660.683       37307.811        2021.307          44.250  
> 2018  4 22 11 21 16.6688020  0  3                     
G 1  22198632.771       43387.263        2013.209          49.000  
G 3  20817571.606      -17206.850        -817.439          42.250  
G11  22860531.444       37509.992        2022.494          44.250  
> 2018  4 22 11 21 16.7688020  0  3                     
G 1  22200502.846       43588.556        2013.910          48.750  
G 3  20819388.488      -17288.540        -817.002          42.500  
G11  22862401.234       37712.178        2022.574          43.750  
> 2018  4 22 11 21 16.8688020  0  3                     
G 1  22202372.716       43789.879        2012.903          49.000  
G 3  20821202.728      -17370.182        -818.555          41.750  
G11  22864271.301       37914.362        2021.861          44.000  
> 2018  4 22 11 21 16.9688020  0  3                     
G 1  22204242.784       43991.182        2013.031          49.250  
G 3  20823018.162      -17451.882        -816.613          42.000  
G11  22866140.549       38116.533        2021.673          44.250  
> 2018  4 22 11 21 17.0688020  0  3                     
G 1  22206112.951       44192.449        2013.215          49.250  
G 3  20824833.818      -17533.588        -817.580          42.250  
G11  22868010.886       38318.677        2021.299          44.250  
> 2018  4 22 11 21 17.1688020  0  3                     
G 1  22207982.940       44393.735        2013.987          49.250  
G 3  20826649.220      -17615.258        -816.821          42.000  
G11  22869881.149       38520.847        2022.608          44.000  
> 2018  4 22 11 21 17.2688020  0  3                     
G 1  22209852.824       44595.111        2014.651          49.250  
G 3  20828465.684      -17696.842        -815.843          42.000  
G11  22871750.904       38723.084        2021.824          44.000  
> 2018  4 22 11 21 17.3688020  0  3                     
G 1  22211722.312       44796.559        2015.265          48.750  
G 3  20830283.358      -17778.348        -814.212          42.000  
G11  22873620.876       38925.404        2023.958          44.000  
> 2018  4 22 11 21 17.4688020  0  3                     
G 1  22213592.277       44998.070        2015.445          49.250  
G 3  20832100.998      -17859.795        -814.593          42.000  
G11  22875491.988       39127.778        2024.446          44.250  
> 2018  4 22 11 21 17.5688020  0  3                     
G 1  22215462.068       45199.646        2016.636          49.250  
G 3  20833916.439      -17941.159        -813.299          42.000  
G11  22877361.862       39330.243        2024.787          44.000  
> 2018  4 22 11 21 17.6688020  0  3                     
G 1  22217331.575       45401.301        2017.176          49.250  
G 3  20835732.328      -18022.427        -811.778          42.000  
G11  22879231.835       39532.770        2025.577          43.750  
> 2018  4 22 11 21 17.7688020  0  3                     
G 1  22219201.149       45602.971        2017.143          49.000  
G 3  20837548.731      -18103.706        -812.889          42.000  
G11  22881102.667       39735.311        2026.332          44.000  
> 2018  4 22 11 21 17.8688020  0  3                     
G 1  22221071.544       45804.658        2017.232          49.000  
G 3  20839363.810      -18184.940        -811.473          42.000  
G11  22882972.960       39937.876        2026.291          44.000  
> 2018  4 22 11 21 17.9688020  0  3                     
G 1  22222941.579       46006.374        2017.510          49.000  
G 3  20841180.477      -18266.159        -812.237          42.000  
G11  22884843.038       40140.451        2025.854          44.250  
> 2018  4 22 11 21 18.0688020  0  3                     
G 1  22224812.163       46208.063        2016.515          49.000  
G 3  20842997.427      -18347.380        -812.952          42.000  
G11  22886711.375       40342.953        1976.011          44.000  
> 2018  4 22 11 21 18.3688020  0  3                     
G 1  22230420.986       46813.069        2015.933          49.000  
G 3  20848443.233      -18591.092        -813.795          42.000  
G11  22892320.062       40950.647        2024.646          44.000  
> 2018  4 22 11 21 18.4688020  0  3                     
G 1  22232290.695       47014.642        2014.926          49.000  
G 3  20850259.524      -18672.400        -812.691          42.000  
G11  22894190.353       41153.093        2023.934          44.250  
> 2018  4 22 11 21 18.5688020  0  3                     
G 1  22234160.179       47216.182        2014.967          49.000  
G 3  20852074.632      -18753.757        -814.260          41.250  
G11  22896062.046       41355.502        2023.818          43.750  
> 2018  4 22 11 21 18.6688020  0  3                     
G 1  22236030.836       47417.611        2013.505          49.000  
G 3  20853891.387      -18835.192        -815.324          42.000  
G11  22897932.608       41557.791        2022.795          43.750  
> 2018  4 22 11 21 18.7688020  0  3                     
G 1  22237900.318       47618.968        2014.186          49.000  
G 3  20855708.764      -18916.730        -815.339          42.250  
G11  22899802.494       41760.014        2021.830          43.750  
> 2018  4 22 11 21 18.8688020  0  3                     
G 1  22239770.410       47820.301        2013.421          48.750  
G 3  20857525.372      -18998.275        -816.676          42.250  
G11  22901672.142       41962.228        2022.193          43.750  
> 2018  4 22 11 21 18.9688020  0  3                     
G 1  22241640.204       48021.602        2012.638          49.000  
G 3  20859341.601      -19079.844        -815.274          41.250  
G11  22903542.071       42164.384        2021.882          43.500  
> 2018  4 22 11 21 19.0688020  0  3                     
G 1  22243510.219       48222.844        2012.468          48.750  
G 3  20861156.985      -19161.451        -815.779          41.750  
G11  22905411.837       42366.498        2019.886          43.500  
> 2018  4 22 11 21 19.1688020  0  3                     
G 1  22245380.274       48424.023        2011.335          49.000  
G 3  20862972.006      -19243.126        -817.517          41.250  
G11  22907280.736       42568.547        2021.006          43.750  
> 2018  4 22 11 21 19.2688020  0  3                     
G 1  22247249.947       48625.169        2011.443          49.000  
G 3  20864787.139      -19324.846        -817.623          42.250  
G11  22909151.087       42770.561        2020.467          43.750  
> 2018  4 22 11 21 19.3688020  0  3                     
G 1  22249119.561       48826.323        2012.446          48.750  
G 3  20866603.368      -19406.521        -817.330          42.250  
G11  22911020.894       42972.580        2020.455          43.750  
> 2018  4 22 11 21 19.4688020  0  3                     
G 1  22250989.387       49027.580        2012.987          49.000  
G 3  20868420.887      -19488.100        -815.729          42.000  
G11  22912891.442       43174.719        2022.041          43.750  
> 2018  4 22 11 21 19.5688020  0  3                     
G 1  22252859.194       49228.895        2013.781          49.000  
G 3  20870237.504      -19569.610        -816.284          41.000  
G11  22914760.818       43376.900        2022.137          44.000  
> 2018  4 22 11 21 19.6688020  0  3                     
G 1  22254728.906       49430.355        2014.814          48.750  
G 3  20872053.012      -19650.982        -813.540          41.250  
G11  22916631.225       43579.225        2024.263          43.750  
> 2018  4 22 11 21 19.7688020  0  3                     
G 1  22256598.234       49631.812        2014.857          48.750  
G 3  20873868.735      -19732.353        -813.348          42.000  
G11  22918500.668       43781.561        2023.198          43.750  
> 2018  4 22 11 21 19.8688020  0  3                     
G 1  22258468.794       49833.350        2015.199          48.750  
G 3  20875684.419      -19813.642        -812.979          41.750  
G11  22920372.147       43983.946        2024.031          44.250  
> 2018  4 22 11 21 19.9688020  0  3                     
G 1  22260338.893       50034.905        2015.706          48.750  
G 3  20877500.337      -19894.895        -813.025          41.750  
G11  22922241.816       44186.373        2025.048          43.750  
> 2018  4 22 11 21 20.0688020  0  3                     
G 1  22262208.823       50236.423        2014.951          49.000  
G 3  20879317.519      -19976.177        -813.607          42.000  
G11  22924112.657       44388.765        2023.652          44.000  
> 2018  4 22 11 21 20.1688020  0  3                     
G 1  22264078.378       50437.950        2014.946          49.000  
G 3  20881134.399      -20057.446        -814.328          41.500  
G11  22925982.785       44591.149        2024.532          44.000  
> 2018  4 22 11 21 20.2688020  0  3                     
G 1  22265948.960       50639.433        2014.898          48.250  
G 3  20882949.520      -20138.753        -812.893          42.000  
G11  22927853.277       44793.498        2024.086          43.750  
> 2018  4 22 11 21 20.3688020  0  3                     
G 1  22267818.530       50840.889        2014.717          48.750  
G 3  20884766.373      -20220.119        -814.313          41.750  
G11  22929722.614       44995.827        2022.944          43.500  
> 2018  4 22 11 21 20.4688020  0  3                     
G 1  22269687.409       51042.325        2014.267          48.750  
G 3  20886582.296      -20301.449        -813.163          41.750  
G11  22931592.747       45198.125        2023.308          44.250  
> 2018  4 22 11 21 20.5688020  0  3                     
G 1  22271557.831       51243.725        2013.795          48.750  
G 3  20888400.416      -20382.815        -814.368          41.750  
G11  22933463.000       45400.394        2022.525          44.000  
> 2018  4 22 11 21 20.6688020  0  3                     
G 1  22273427.575       51445.083        2013.548          48.750  
G 3  20890217.423      -20464.215        -814.414          41.750  
G11  22935333.269       45602.617        2022.249          44.000  
> 2018  4 22 11 21 20.7688020  0  3                     
G 1  22275297.328       51646.330        2012.017          48.750  
G 3  20892032.756      -20545.741        -816.300          41.500  
G11  22937202.642       45804.739        2022.542          43.750  
> 2018  4 22 11 21 20.8688020  0  3                     
G 1  22277167.622       51847.660        2013.286          49.000  
G 3  20893849.190      -20627.161        -814.048          42.000  
G11  22939072.426       46006.920        2022.484          43.750  
> 2018  4 22 11 21 20.9688020  0  3                     
G 1  22279037.932       52049.019        2014.136          48.750  
G 3  20895664.839      -20708.583        -814.839          42.000  
G11  22940942.519       46209.150        2022.561          43.750  
> 2018  4 22 11 21 21.0688020  0  3                     
G 1  22280907.788       52250.459        2015.297          48.750  
G 3  20897480.101      -20789.881        -812.311          41.500  
G11  22942812.808       46411.448        2023.863          43.500  
> 2018  4 22 11 21 21.1688020  0  3                     
G 1  22282777.206       52451.940        2015.468          48.750  
G 3  20899296.816      -20871.160        -813.001          41.750  
G11  22944683.944       46613.797        2024.035          43.750  
> 2018  4 22 11 21 21.2688020  0  3                     
G 1  22284647.877       52653.499        2016.281          48.750  
G 3  20901112.179      -20952.327        -811.283          41.500  
G11  22946553.182       46816.230        2024.855          43.500  
> 2018  4 22 11 21 21.3688020  0  3                     
G 1  22286517.908       52855.097        2016.157          48.500  
G 3  20902928.817      -21033.453        -811.007          41.500  
G11  22948423.864       47018.692        2025.003          43.750  
> 2018  4 22 11 21 21.4688020  0  3                     
G 1  22288387.606       53056.727        2016.367          48.750  
G 3  20904745.349      -21114.552        -811.191          41.000  
G11  22950292.862       47221.186        2025.765          43.750  
> 2018  4 22 11 21 21.5688020  0  3                     
G 1  22290257.627       53258.404        2017.023          48.750  
G 3  20906560.785      -21195.604        -811.407          41.750  
G11  22952162.972       47423.723        2025.955          43.750  
> 2018  4 22 11 21 21.6688020  0  3                     
G 1  22292127.246       53460.145        2017.175          48.500  
G 3  20908377.384      -21276.579        -809.781          41.750  
G11  22954034.487       47626.324        2026.467          43.750  
> 2018  4 22 11 21 21.7688020  0  3                     
G 1  22293997.404       53661.863        2017.493          48.500  
G 3  20910192.320      -21357.546        -809.207          41.500  
G11  22955903.982       47828.909        2025.525          43.750  
> 2018  4 22 11 21 21.8688020  0  3                     
G 1  22295867.984       53863.607        2017.737          48.750  
G 3  20912008.430      -21438.519        -808.935          41.500  
G11  22957774.062       48031.519        2026.421          43.500  
> 2018  4 22 11 21 21.9688020  0  3                     
G 1  22297737.510       54065.323        2017.415          48.750  
G 3  20913824.934      -21519.519        -810.273          41.750  
G11  22959643.772       48234.087        2026.442          43.750  
> 2018  4 22 11 21 22.0688020  0  3                     
G 1  22299607.649       54267.068        2018.290          48.750  
G 3  20915641.445      -21600.472        -810.658          42.000  
G11  22961514.292       48436.704        2026.733          43.750  
> 2018  4 22 11 21 22.1688020  0  3                     
G 1  22301478.107       54468.794        2017.249          49.000  
G 3  20917457.618      -21681.419        -810.310          41.750  
G11  22963384.488       48639.287        2026.191          43.500  
> 2018  4 22 11 21 22.2688020  0  3                     
G 1  22303348.205       54670.532        2017.504          48.750  
G 3  20919273.349      -21762.382        -810.159          41.250  
G11  22965254.741       48841.886        2026.637          43.500  
> 2018  4 22 11 21 22.3688020  0  3                     
G 1  22305218.448       54872.249        2017.669          48.750  
G 3  20921089.226      -21843.330        -809.655          41.250  
G11  22967124.701       49044.453        2026.633          43.250  
> 2018  4 22 11 21 22.4688020  0  3                     
G 1  22307087.815       55073.908        2016.582          48.500  
G 3  20922904.463      -21924.347        -810.497          40.750  
G11  22968993.987       49246.985        2025.271          43.250  
> 2018  4 22 11 21 22.5688020  0  3                     
G 1  22308957.917       55275.506        2016.143          48.750  
G 3  20924720.482      -22005.402        -810.597          41.000  
G11  22970865.201       49449.438        2025.011          43.500  
> 2018  4 22 11 21 22.6688020  0  3                     
G 1  22310827.384       55477.086        2016.113          48.750  
G 3  20926537.234      -22086.474        -809.930          41.250  
G11  22972734.472       49651.882        2025.741          43.500  
> 2018  4 22 11 21 22.7688020  0  3                     
G 1  22312697.756       55678.625        2015.243          48.750  
G 3  20928353.146      -22167.583        -811.877          41.250  
G11  22974605.048       49854.297        2024.327          43.750  
> 2018  4 22 11 21 22.8688020  0  3                     
G 1  22314567.671       55880.193        2016.146          48.500  
G 3  20930169.216      -22248.677        -811.253          41.500  
G11  22976474.703       50056.714        2024.883          43.500  
> 2018  4 22 11 21 22.9688020  0  3                     
G 1  22316437.985       56081.742        2016.460          48.750  
G 3  20931984.371      -22329.753        -809.473          41.500  
G11  22978344.988       50259.116        2025.937          43.250  
> 2018  4 22 11 21 23.0688020  0  3                     
G 1  22318307.725       56283.346        2016.631          48.750  
G 3  20933800.536      -22410.797        -808.739          41.250  
G11  22980214.896       50461.595        2026.221          43.250  
> 2018  4 22 11 21 23.1688020  0  3                     
G 1  22320177.866       56485.018        2016.525          48.500  
G 3  20935616.414      -22491.771        -810.485          41.750  
G11  22982087.010       50664.090        2024.803          43.750  
> 2018  4 22 11 21 23.2688020  0  3                     
G 1  22322047.277       56686.695        2017.139          48.500  
G 3  20937433.275      -22572.709        -809.261          42.000  
G11  22983957.700       50866.642        2026.144          43.750  
> 2018  4 22 11 21 23.3688020  0  3                     
G 1  22323916.823       56888.454        2017.592          48.750  
G 3  20939249.694      -22653.599        -808.713          41.500  
G11  22985827.700       51069.258        2026.675          43.500  
> 2018  4 22 11 21 23.4688020  0  3                     
G 1  22325787.415       57090.212        2017.619          48.750  
G 3  20941066.853      -22734.444        -808.672          41.500  
G11  22987698.110       51271.877        2026.817          43.500  
> 2018  4 22 11 21 23.5688020  0  3                     
G 1  22327657.079       57291.985        2018.615          49.000  
G 3  20942881.538      -22815.256        -807.520          40.750  
G11  22989567.385       51474.513        2026.634          43.500  
> 2018  4 22 11 21 23.6688020  0  3                     
G 1  22329526.985       57493.786        2018.026          49.000  
G 3  20944697.319      -22896.063        -808.444          40.750  
G11  22991437.482       51677.173        2026.340          43.000  
> 2018  4 22 11 21 23.7688020  0  3                     
G 1  22331396.722       57695.592        2017.636          48.750  
G 3  20946511.807      -22976.870        -808.260          40.750  
G11  22993308.146       51879.840        2026.372          43.250  
> 2018  4 22 11 21 23.8688020  0  3                     
G 1  22333266.900       57897.396        2018.492          48.750  
G 3  20948328.085      -23057.646        -808.201          40.250  
G11  22995177.393       52082.503        2027.661          43.250  
> 2018  4 22 11 21 23.9688020  0  3                     
G 1  22335137.187       58099.242        2018.775          48.750  
G 3  20950144.741      -23138.404        -809.125          40.750  
G11  22997046.416       52285.184        2026.643          43.250  
> 2018  4 22 11 21 24.0688020  0  3                     
G 1  22337007.008       58301.172        2037.078          48.750  
G 3  20951960.799      -23219.103        -806.198          40.750  
G11  22998915.383       52487.935        2027.875          43.000  
> 2018  4 22 11 21 24.1688020  0  3                     
G 1  22338877.649       58503.130        2027.353          48.750  
G 3  20953776.516      -23299.772        -807.010          40.750  
G11  23000785.616       52690.699        2028.016          43.000  
> 2018  4 22 11 21 24.2688020  0  3                     
G 1  22340746.915       58704.897        2019.335          48.750  
G 3  20955592.955      -23380.462        -806.713          41.250  
G11  23002656.132       52893.432        2028.091          43.000  
> 2018  4 22 11 21 24.3688020  0  3                     
G 1  22342616.600       58906.788        2019.240          48.750  
G 3  20957409.831      -23461.140        -807.166          41.250  
G11  23004526.334       53096.178        2028.643          43.250  
> 2018  4 22 11 21 24.4688020  0  3                     
G 1  22344487.308       59108.644        2018.363          48.750  
G 3  20959226.971      -23541.847        -807.930          41.250  
G11  23006396.477       53298.906        2028.171          43.250  
> 2018  4 22 11 21 24.5688020  0  3                     
G 1  22346357.310       59310.468        2018.237          49.000  
G 3  20961042.658      -23622.584        -807.798          41.500  
G11  23008266.469       53501.567        2026.747          43.250  
> 2018  4 22 11 21 24.6688020  0  3                     
G 1  22348226.977       59512.281        2018.418          49.000  
G 3  20962858.766      -23703.300        -807.833          41.250  
G11  23010138.199       53704.243        2026.211          43.250  
> 2018  4 22 11 21 24.7688020  0  3                     
G 1  22350096.663       59714.067        2017.797          48.750  
G 3  20964674.261      -23784.061        -807.211          41.500  
G11  23012007.457       53906.884        2026.663          43.500  
> 2018  4 22 11 21 24.8688020  0  3                     
G 1  22351966.295       59915.816        2017.149          48.750  
G 3  20966489.733      -23864.854        -808.090          41.250  
G11  23013877.525       54109.489        2026.191          43.500  
> 2018  4 22 11 21 24.9688020  0  3                     
G 1  22353836.491       60117.553        2017.493          49.000  
G 3  20968305.836      -23945.649        -807.571          41.250  
G11  23015747.259       54312.070        2025.816          43.500  
> 2018  4 22 11 21 25.0688020  0  3                     
G 1  22355706.877       60319.297        2017.967          49.000  
G 3  20970122.571      -24026.441        -807.501          40.750  
G11  23017616.635       54514.668        2026.168          43.000  
> 2018  4 22 11 21 25.1688020  0  3                     
G 1  22357576.826       60521.026        2017.020          48.750  
G 3  20971940.464      -24107.233        -808.761          41.000  
G11  23019487.515       54717.263        2025.565          43.250  
> 2018  4 22 11 21 25.2688020  0  3                     
G 1  22359446.659       60722.688        2015.674          48.750  
G 3  20973756.667      -24188.078        -808.952          41.250  
G11  23021357.198       54919.781        2025.229          43.000  
> 2018  4 22 11 21 25.3688020  0  3                     
G 1  22361317.134       60924.326        2016.462          49.000  
G 3  20975571.048      -24268.956        -808.226          40.500  
G11  23023226.935       55122.268        2025.916          43.250  
> 2018  4 22 11 21 25.4688020  0  3                     
G 1  22363187.864       61125.945        2016.929          49.000  
G 3  20977387.273      -24349.841        -809.587          40.500  
G11  23025097.385       55324.744        2025.542          43.000  
> 2018  4 22 11 21 25.5688020  0  3                     
G 1  22365057.643       61327.532        2015.988          49.000  
G 3  20979203.373      -24430.763        -810.026          40.500  
G11  23026967.979       55527.190        2023.672          43.000  
> 2018  4 22 11 21 25.6688020  0  3                     
G 1  22366927.244       61529.137        2016.171          49.000  
G 3  20981019.120      -24511.634        -807.889          40.750  
G11  23028838.497       55729.635        2024.524          43.500  
> 2018  4 22 11 21 25.7688020  0  3                     
G 1  22368797.692       61730.648        2014.686          49.000  
G 3  20982834.412      -24592.604        -809.723          40.250  
G11  23030708.357       55932.014        2022.943          43.000  
> 2018  4 22 11 21 25.8688020  0  3                     
G 1  22370666.707       61932.129        2015.042          48.750  
G 3  20984649.812      -24673.614        -810.561          39.750  
G11  23032578.220       56134.339        2024.181          42.750  
> 2018  4 22 11 21 25.9688020  0  3                     
G 1  22372536.356       62133.609        2014.175          49.000  
G 3  20986466.025      -24754.598        -809.108          40.000  
G11  23034447.860       56336.680        2022.945          43.000  
> 2018  4 22 11 21 26.0688020  0  3                     
G 1  22374406.144       62335.196        2016.938          48.750  
G 3  20988283.069      -24835.485        -807.430          40.250  
G11  23036318.748       56539.092        2024.951          42.750  
> 2018  4 22 11 21 26.1688020  0  3                     
G 1  22376275.591       62536.834        2016.541          48.750  
G 3  20990098.471      -24916.315        -808.446          40.000  
G11  23038189.279       56741.621        2026.086          43.000  
> 2018  4 22 11 21 26.2688020  0  3                     
G 1  22378145.443       62738.577        2018.210          49.000  
G 3  20991912.559      -24997.027        -806.596          39.750  
G11  23040059.889       56944.197        2026.170          42.750  
> 2018  4 22 11 21 26.3688020  0  3                     
G 1  22380015.561       62940.386        2018.475          49.000  
G 3  20993729.536      -25077.667        -805.970          40.250  
G11  23041928.484       57146.872        2026.530          43.250  
> 2018  4 22 11 21 26.4688020  0  3                     
G 1  22381885.506       63142.215        2018.472          49.000  
G 3  20995544.655      -25158.300        -806.404          40.500  
G11  23043798.026       57349.540        2026.149          42.750  
> 2018  4 22 11 21 26.5688020  0  3                     
G 1  22383755.773       63343.983        2016.998          49.000  
G 3  20997359.809      -25238.967        -806.761          39.750  
G11  23045668.554       57552.175        2026.034          43.250  
> 2018  4 22 11 21 26.6688020  0  3                     
G 1  22385625.856       63545.726        2017.430          49.000  
G 3  20999176.119      -25319.667        -806.909          40.250  
G11  23047539.137       57754.759        2026.090          43.000  
> 2018  4 22 11 21 26.7688020  0  3                     
G 1  22387495.846       63747.424        2016.488          49.000  
G 3  21000992.704      -25400.386        -808.256          40.000  
G11  23049408.734       57957.316        2024.868          43.250  
> 2018  4 22 11 21 26.8688020  0  3                     
G 1  22389365.344       63949.112        2016.540          49.000  
G 3  21002810.298      -25481.123        -808.408          40.000  
G11  23051278.644       58159.846        2025.080          43.000  
> 2018  4 22 11 21 26.9688020  0  3                     
G 1  22391235.299       64150.788        2016.674          49.000  
G 3  21004627.320      -25561.870        -807.364          40.000  
G11  23053148.711       58362.376        2025.109          43.000  
> 2018  4 22 11 21 27.0688020  0  3                     
G 1  22393104.907       64352.434        2017.256          48.750  
G 3  21006444.882      -25642.643        -807.761          39.500  
G11  23055018.905       58564.877        2025.053          43.000  
> 2018  4 22 11 21 27.1688020  0  3                     
G 1  22394975.493       64554.131        2017.327          49.000  
G 3  21008261.916      -25723.365        -806.985          40.250  
G11  23056889.279       58767.411        2026.328          43.250  
> 2018  4 22 11 21 27.2688020  0  3                     
G 1  22396845.465       64755.798        2016.804          49.000  
G 3  21010076.718      -25804.078        -807.167          40.500  
G11  23058760.152       58969.944        2025.297          43.500  
> 2018  4 22 11 21 27.3688020  0  3                     
G 1  22398716.010       64957.479        2016.781          49.000  
G 3  21011891.832      -25884.786        -807.451          40.000  
G11  23060630.083       59172.472        2026.109          43.250  
> 2018  4 22 11 21 27.4688020  0  3                     
G 1  22400586.011       65159.178        2017.387          49.000  
G 3  21013708.878      -25965.498        -806.391          40.250  
G11  23062500.676       59375.018        2025.902          43.000  
> 2018  4 22 11 21 27.5688020  0  3                     
G 1  22402455.689       65360.875        2016.470          49.000  
G 3  21015524.029      -26046.177        -806.740          39.750  
G11  23064371.785       59577.555        2025.088          43.250  
> 2018  4 22 11 21 27.6688020  0  3                     
G 1  22404325.702       65562.539        2016.596          48.750  
G 3  21017339.182      -26126.906        -807.197          40.250  
G11  23066241.052       59780.086        2025.547          43.250  
> 2018  4 22 11 21 27.7688020  0  3                     
G 1  22406194.888       65764.127        2016.009          48.500  
G 3  21019155.229      -26207.691        -808.964          40.250  
G11  23068111.104       59982.511        2023.851          43.000  
> 2018  4 22 11 21 27.8688020  0  3                     
G 1  22408064.683       65965.696        2015.604          48.750  
G 3  21020973.488      -26288.488        -808.712          40.000  
G11  23069981.433       60184.924        2024.729          43.250  
> 2018  4 22 11 21 27.9688020  0  3                     
G 1  22409934.313       66167.322        2016.516          48.500  
G 3  21022789.943      -26369.230        -808.492          40.000  
G11  23071850.322       60387.396        2025.602          43.250  
> 2018  4 22 11 21 28.0688020  0  3                     
G 1  22411804.083       66369.031        2017.576          49.000  
G 3  21024605.031      -26449.877        -806.132          39.750  
G11  23073720.601       60589.955        2024.989          43.250  
