     3.02           OBSERVATION DATA    M: Mixed            RINEX VERSION / TYPE
GNSS-SDRLIB v1.1                        20180429 101041 UTC PGM / RUN BY / DATE 
                                                            MARKER NAME         
                                                            MARKER NUMBER       
                                                            MARKER TYPE         
                                                            OBSERVER / AGENCY   
GNSS-SDRLIB         GNSS-SDRLIB         1.1                 REC # / TYPE / VERS 
                                                            ANT # / TYPE        
        0.0000        0.0000        0.0000                  APPROX POSITION XYZ 
        0.0000        0.0000        0.0000                  ANTENNA: DELTA H/E/N
G    4 C1C L1C D1C S1C                                      SYS / # / OBS TYPES 
R    4 C1C L1C D1C S1C                                      SYS / # / OBS TYPES 
E    4 C1C L1C D1C S1C                                      SYS / # / OBS TYPES 
J    4 C1C L1C D1C S1C                                      SYS / # / OBS TYPES 
S    4 C1C L1C D1C S1C                                      SYS / # / OBS TYPES 
C    4 C1C L1C D1C S1C                                      SYS / # / OBS TYPES 
  1970     1     1     0     0    0.0000000     GPS         TIME OF FIRST OBS   
  1970     1     1     0     0    0.0000000     GPS         TIME OF LAST OBS    
G                                                           SYS / PHASE SHIFT   
R                                                           SYS / PHASE SHIFT   
E                                                           SYS / PHASE SHIFT   
J                                                           SYS / PHASE SHIFT   
S                                                           SYS / PHASE SHIFT   
C                                                           SYS / PHASE SHIFT   
  0                                                         GLONASS SLOT / FRQ #
 C1C    0.000 C1P    0.000 C2C    0.000 C2P    0.000        GLONASS COD/PHS/BIS 
                                                            END OF HEADER       
> 2018  4 22 11 21  6.0688020  0  1                     
G28  20625059.311        3375.699         352.534          48.250  
> 2018  4 22 11 21  6.1688020  0  1                     
G28  20626915.747        3410.926         353.090          48.250  
> 2018  4 22 11 21  6.0688020  0  2                     
G17  21059048.120      -23695.320       -2314.745          51.750  
G28  20625059.311        3375.699         352.534          48.250  
> 2018  4 22 11 21  6.1688020  0  2                     
G17  21060853.676      -23927.931       -2336.388          51.750  
G28  20626915.747        3410.926         353.090          48.250  
> 2018  4 22 11 21  6.0688020  0  3                     
G 1  22724837.773       22077.251        1994.441          48.750  
G17  21059048.120      -23695.471       -2324.050          51.750  
G28  20625059.311        3375.699         352.534          48.250  
> 2018  4 22 11 21  6.1688020  0  3                     
G 1  22726725.820       22277.898        2008.836          49.000  
G17  21060853.676      -23927.805       -2323.825          51.750  
G28  20626915.747        3410.926         353.090          48.250  
> 2018  4 22 11 21  6.0688020  0  4                     
G 1  22724837.773       22077.339        2004.249          49.000  
G17  21059048.120      -23695.471       -2324.050          51.750  
G22  22900473.471        7905.649         785.708          46.500  
G28  20625059.311        3375.699         352.534          48.250  
> 2018  4 22 11 21  6.1688020  0  4                     
G 1  22726725.820       22277.794        2004.206          49.000  
G17  21060853.676      -23927.805       -2323.825          51.750  
G22  22902337.546        7976.980         799.029          46.250  
G28  20626915.747        3410.926         353.090          48.250  
> 2018  4 22 11 21  6.0688020  0  5                     
G 1  22724837.773       22077.339        2004.249          49.000  
G11  23386715.875       21060.384        2029.339          44.500  
G17  21059048.120      -23695.471       -2324.050          51.750  
G22  22900473.471        7896.472         800.926          46.500  
G28  20625059.311        3375.699         352.534          48.250  
> 2018  4 22 11 21  6.1688020  0  5                     
G 1  22726725.820       22277.794        2004.206          49.000  
G11  23388604.461       21252.062        2012.407          44.250  
G17  21060853.676      -23927.805       -2323.825          51.750  
G22  22902337.546        7977.036         801.389          46.500  
G28  20626915.747        3410.926         353.090          48.250  
> 2018  4 22 11 21  6.2688020  0  5                     
G 1  22728595.415       22478.291        2005.248          49.000  
G11  23390475.373       21453.604        2014.183          44.500  
G17  21062641.668      -24160.093       -2322.585          51.750  
G22  22904184.878        8057.143         801.433          46.500  
G28  20628755.302        3446.228         353.019          48.250  
> 2018  4 22 11 21  6.3688020  0  5                     
G 1  22730465.366       22678.892        2006.156          48.750  
G11  23392345.366       21655.106        2015.182          44.250  
G17  21064429.058      -24392.268       -2322.530          51.750  
G22  22906032.122        8137.374         802.138          46.500  
G28  20630591.225        3481.632         354.288          48.250  
> 2018  4 22 11 21  6.4688020  0  5                     
G 1  22732335.793       22879.546        2007.390          49.000  
G11  23394215.052       21856.654        2016.016          44.250  
G17  21066216.667      -24624.411       -2320.948          51.500  
G22  22907879.151        8217.635         803.287          46.250  
G28  20632430.272        3517.086         354.424          48.250  
> 2018  4 22 11 21  6.5688020  0  5                     
G 1  22734205.562       23080.240        2006.998          49.000  
G11  23396084.301       22058.246        2015.718          44.250  
G17  21068004.721      -24856.497       -2320.749          51.750  
G22  22909725.189        8297.959         803.120          46.250  
G28  20634269.733        3552.591         355.528          48.500  
> 2018  4 22 11 21  6.6688020  0  5                     
G 1  22736075.329       23280.958        2008.090          49.000  
G11  23397955.290       22259.887        2017.179          44.250  
G17  21069792.210      -25088.554       -2320.367          51.750  
G22  22911571.964        8378.312         804.245          46.500  
G28  20636106.858        3588.129         356.043          48.250  
> 2018  4 22 11 21  6.7688020  0  5                     
G 1  22737945.591       23481.792        2008.770          49.000  
G11  23399825.583       22461.608        2017.698          44.250  
G17  21071579.734      -25320.500       -2319.374          51.500  
G22  22913419.693        8458.777         805.764          46.500  
G28  20637946.676        3623.775         356.692          48.500  
> 2018  4 22 11 21  6.8688020  0  5                     
G 1  22739815.343       23682.664        2008.243          49.000  
G11  23401695.444       22663.383        2017.242          44.500  
G17  21073366.763      -25552.410       -2319.283          51.750  
G22  22915266.685        8539.290         805.831          46.750  
G28  20639784.164        3659.458         356.826          48.250  
> 2018  4 22 11 21  6.9688020  0  5                     
G 1  22741684.523       23883.589        2009.628          49.000  
G11  23403565.721       22865.206        2018.472          44.000  
G17  21075154.433      -25784.263       -2318.367          51.750  
G22  22917113.396        8619.859         805.645          46.500  
G28  20641621.619        3695.201         357.887          48.250  
> 2018  4 22 11 21  7.0688020  0  5                     
G 1  22743554.211       24084.524        2009.247          48.750  
G11  23405436.428       23067.038        2018.427          44.000  
G17  21076941.935      -26016.109       -2318.377          51.750  
G22  22918960.927        8700.443         806.588          46.500  
G28  20643461.087        3730.966         358.108          48.250  
> 2018  4 22 11 21  7.1688020  0  5                     
G 1  22745423.836       24285.482        2009.030          49.000  
G11  23407306.054       23268.900        2019.134          44.000  
G17  21078729.665      -26247.938       -2319.002          51.750  
G22  22920808.344        8781.034         806.118          46.250  
G28  20645298.537        3766.757         357.854          48.250  
> 2018  4 22 11 21  7.2688020  0  5                     
G 1  22747293.972       24486.404        2008.838          49.000  
G11  23409176.071       23470.712        2017.668          44.000  
G17  21080517.335      -26479.785       -2318.176          51.750  
G22  22922655.658        8861.619         804.978          46.250  
G28  20647137.038        3802.517         357.235          48.250  
> 2018  4 22 11 21  7.3688020  0  5                     
G 1  22749163.486       24687.303        2008.437          49.250  
G11  23411046.488       23672.512        2017.077          44.000  
G17  21082304.219      -26711.663       -2319.300          51.750  
G22  22924502.273        8942.178         806.444          46.500  
G28  20648976.518        3838.258         357.428          48.250  
> 2018  4 22 11 21  7.4688020  0  5                     
G 1  22751033.613       24888.211        2009.954          49.000  
G11  23412916.605       23874.333        2019.299          44.000  
G17  21084091.559      -26943.517       -2318.090          51.750  
G22  22926347.249        9022.737         806.156          46.250  
G28  20650812.459        3874.024         358.457          47.750  
> 2018  4 22 11 21  7.5688020  0  5                     
G 1  22752903.724       25089.173        2009.506          49.000  
G11  23414785.579       24076.185        2018.259          44.250  
G17  21085879.128      -27175.345       -2318.117          51.750  
G22  22928194.545        9103.358         806.343          46.250  
G28  20652651.519        3909.818         357.742          48.250  
> 2018  4 22 11 21  7.6688020  0  5                     
G 1  22754773.851       25290.116        2009.257          49.000  
G11  23416655.682       24278.009        2019.010          44.250  
G17  21087666.307      -27407.185       -2318.766          51.750  
G22  22930041.970        9183.962         805.676          46.500  
G28  20654490.559        3945.605         358.289          48.000  
> 2018  4 22 11 21  7.7688020  0  5                     
G 1  22756644.503       25491.016        2009.767          48.750  
G11  23418525.416       24479.812        2018.074          44.000  
G17  21089453.674      -27639.053       -2318.947          51.750  
G22  22931889.767        9264.542         806.103          46.750  
G28  20656327.530        3981.374         357.648          48.250  
> 2018  4 22 11 21  7.8688020  0  5                     
G 1  22758514.304       25691.899        2008.583          49.000  
G11  23420395.244       24681.593        2017.138          44.000  
G17  21091240.601      -27870.935       -2319.125          51.750  
G22  22933736.530        9345.100         805.482          46.250  
G28  20658166.704        4017.112         357.229          48.250  
> 2018  4 22 11 21  7.9688020  0  5                     
G 1  22760384.743       25892.778        2009.064          48.750  
G11  23422266.752       24883.361        2017.360          44.000  
G17  21093028.451      -28102.830       -2318.993          52.000  
G22  22935583.745        9425.651         805.729          46.500  
G28  20660005.055        4052.868         357.873          48.250  
> 2018  4 22 11 21  8.0688020  0  5                     
G 1  22762254.342       26093.639        2008.270          49.000  
G11  23424136.639       25085.150        2017.626          44.250  
G17  21094815.872      -28334.730       -2319.703          52.000  
G22  22937430.307        9506.206         805.146          46.500  
G28  20661843.750        4088.603         357.526          48.250  
> 2018  4 22 11 21  8.1688020  0  5                     
G 1  22764123.774       26294.495        2009.110          49.000  
G11  23426006.312       25286.891        2017.202          44.000  
G17  21096603.081      -28566.643       -2318.799          52.000  
G22  22939277.589        9586.742         806.147          46.250  
G28  20663684.119        4124.331         358.254          48.000  
> 2018  4 22 11 21  8.2688020  0  5                     
G 1  22765993.031       26495.370        2009.191          49.000  
G11  23427876.849       25488.652        2018.021          44.000  
G17  21098390.671      -28798.546       -2318.542          51.750  
G22  22941125.253        9667.305         806.484          46.500  
G28  20665520.103        4160.079         358.235          48.000  
> 2018  4 22 11 21  8.3688020  0  5                     
G 1  22767862.636       26696.288        2009.419          49.000  
G11  23429745.789       25690.482        2018.596          44.500  
G17  21100178.227      -29030.394       -2318.631          51.750  
G22  22942972.910        9747.928         806.581          46.500  
G28  20667358.082        4195.882         358.941          48.250  
> 2018  4 22 11 21  8.4688020  0  5                     
G 1  22769732.040       26897.166        2009.039          49.000  
G11  23431615.345       25892.256        2017.955          44.250  
G17  21101965.978      -29262.295       -2318.689          51.750  
G22  22944819.310        9828.502         806.130          46.500  
G28  20669197.305        4231.646         358.400          48.250  
> 2018  4 22 11 21  8.5688020  0  5                     
G 1  22771602.130       27098.079        2009.935          49.250  
G11  23433485.532       26094.063        2018.375          44.000  
G17  21103753.323      -29494.144       -2318.480          51.750  
G22  22946666.340        9909.106         806.454          46.000  
G28  20671034.295        4267.447         358.430          48.250  
> 2018  4 22 11 21  8.6688020  0  5                     
G 1  22773471.221       27298.987        2009.155          49.000  
G11  23435356.279       26295.882        2018.627          44.500  
G17  21105541.343      -29725.984       -2318.703          51.750  
G22  22948511.815        9989.748         806.722          46.250  
G28  20672874.550        4303.263         357.466          48.000  
> 2018  4 22 11 21  8.7688020  0  5                     
G 1  22775340.567       27499.861        2008.618          49.000  
G11  23437227.507       26497.624        2017.118          44.500  
G17  21107328.484      -29957.893       -2319.669          51.750  
G22  22950358.639       10070.308         805.308          46.250  
G28  20674712.394        4339.019         357.372          48.250  
> 2018  4 22 11 21  8.8688020  0  5                     
G 1  22777210.728       27700.672        2008.613          49.000  
G11  23439096.967       26699.345        2017.669          44.250  
G17  21109115.947      -30189.831       -2319.731          52.000  
G22  22952206.153       10150.842         805.297          46.500  
G28  20676550.131        4374.744         356.609          48.500  
> 2018  4 22 11 21  8.9688020  0  5                     
G 1  22779080.593       27901.505        2008.170          49.000  
G11  23440967.166       26901.076        2017.243          44.250  
G17  21110903.300      -30421.778       -2319.373          51.750  
G22  22954053.446       10231.377         805.314          46.250  
G28  20678389.770        4410.471         357.130          48.000  
> 2018  4 22 11 21  9.0688020  0  5                     
G 1  22780950.758       28102.352        2008.322          49.000  
G11  23442836.600       27102.820        2016.637          44.000  
G17  21112690.536      -30653.685       -2319.268          51.750  
G22  22955900.451       10311.965         805.441          46.250  
G28  20680227.124        4446.249         357.960          47.750  
> 2018  4 22 11 21  9.1688020  0  5                     
G 1  22782820.947       28303.205        2008.490          48.750  
G11  23444705.758       27304.568        2016.769          44.000  
G17  21114478.462      -30885.591       -2319.125          51.750  
G22  22957746.529       10392.528         805.990          46.000  
G28  20682064.866        4482.013         357.764          48.000  
> 2018  4 22 11 21  9.2688020  0  5                     
G 1  22784690.466       28504.044        2008.213          48.750  
G11  23446576.079       27506.320        2017.182          44.250  
G17  21116265.761      -31117.510       -2319.427          51.750  
G22  22959592.688       10473.098         805.147          46.250  
G28  20683904.954        4517.773         357.077          48.000  
> 2018  4 22 11 21  9.3688020  0  5                     
G 1  22786559.903       28704.861        2008.816          49.000  
G11  23448445.851       27708.019        2016.828          44.750  
G17  21118053.165      -31349.465       -2319.608          51.750  
G22  22961440.073       10553.639         805.952          46.250  
G28  20685741.520        4553.513         357.330          48.250  
> 2018  4 22 11 21  9.4688020  0  5                     
G 1  22788429.480       28905.688        2008.113          49.250  
G11  23450316.181       27909.729        2017.609          44.250  
G17  21119841.178      -31581.383       -2318.882          51.750  
G22  22963288.373       10634.200         805.609          46.500  
G28  20687580.634        4589.271         358.320          48.000  
> 2018  4 22 11 21  9.5688020  0  5                     
G 1  22790299.251       29106.469        2008.369          49.000  
G11  23452186.055       28111.399        2017.116          44.000  
G17  21121628.446      -31813.376       -2319.830          52.000  
G22  22965135.849       10714.722         805.243          46.750  
G28  20689418.521        4624.978         357.521          48.000  
> 2018  4 22 11 21  9.6688020  0  5                     
G 1  22792169.095       29307.149        2006.518          49.000  
G11  23454056.365       28312.988        2015.425          44.250  
G17  21123416.361      -32045.442       -2321.203          51.750  
G22  22966982.582       10795.153         803.067          46.250  
G28  20691255.834        4660.604         355.638          47.750  
> 2018  4 22 11 21  9.7688020  0  5                     
G 1  22794038.249       29507.800        2006.228          49.000  
G11  23455926.127       28514.522        2014.831          44.500  
G17  21125203.515      -32277.562       -2321.570          52.000  
G22  22968829.564       10875.546         803.584          46.250  
G28  20693095.178        4696.193         355.467          48.000  
> 2018  4 22 11 21  9.8688020  0  5                     
G 1  22795908.039       29708.423        2006.498          49.250  
G11  23457795.849       28716.052        2015.345          44.500  
G17  21126990.982      -32509.695       -2321.938          51.750  
G22  22970677.129       10955.908         803.895          46.500  
G28  20694933.155        4731.765         355.306          48.000  
> 2018  4 22 11 21  9.9688020  0  5                     
G 1  22797778.068       29908.996        2005.856          48.750  
G11  23459666.749       28917.510        2014.774          44.000  
G17  21128778.447      -32741.883       -2322.123          51.750  
G22  22972523.696       11036.250         803.474          45.750  
G28  20696770.783        4767.286         354.954          47.750  
> 2018  4 22 11 21 10.0688020  0  5                     
G 1  22799648.088       30109.517        2004.798          49.000  
G11  23461536.982       29118.917        2014.040          44.250  
G17  21130565.327      -32974.099       -2322.708          51.750  
G22  22974370.110       11116.525         803.147          46.500  
G28  20698610.733        4802.767         354.366          48.000  
> 2018  4 22 11 21 10.1688020  0  5                     
G 1  22801518.213       30310.002        2004.756          49.000  
G11  23463406.236       29320.300        2013.867          44.250  
G17  21132353.217      -33206.382       -2323.035          52.000  
G22  22976217.297       11196.768         802.816          46.250  
G28  20700447.874        4838.205         354.382          48.000  
> 2018  4 22 11 21 10.2688020  0  5                     
G 1  22803387.851       30510.416        2003.554          49.000  
G11  23465276.192       29521.597        2012.776          44.250  
G17  21134140.486      -33438.720       -2324.402          51.750  
G22  22978064.208       11276.942         801.288          46.500  
G28  20702287.020        4873.583         353.019          48.000  
> 2018  4 22 11 21 10.3688020  0  5                     
G 1  22805257.864       30710.815        2004.076          49.000  
G11  23467146.019       29722.900        2013.739          44.250  
G17  21135927.702      -33671.072       -2323.154          52.000  
G22  22979911.362       11357.125         802.228          46.750  
G28  20704125.563        4908.948         354.375          48.250  
> 2018  4 22 11 21 10.4688020  0  5                     
G 1  22807127.392       30911.262        2004.366          49.000  
G11  23469015.509       29924.238        2014.218          44.500  
G17  21137715.291      -33903.378       -2323.391          52.000  
G22  22981757.189       11437.330         802.078          46.250  
G28  20705962.604        4944.373         354.089          48.250  
> 2018  4 22 11 21 10.5688020  0  5                     
G 1  22808996.945       31111.693        2004.339          49.250  
G11  23470884.335       30125.563        2013.248          44.000  
G17  21139502.538      -34135.704       -2323.055          51.750  
G22  22983603.143       11517.540         801.923          46.500  
G28  20707801.624        4979.776         354.041          48.000  
> 2018  4 22 11 21 10.6688020  0  5                     
G 1  22810866.747       31312.161        2005.031          49.000  
G11  23472754.956       30326.907        2014.647          44.250  
G17  21141290.873      -34367.995       -2322.976          52.000  
G22  22985449.994       11597.788         803.030          46.500  
G28  20709639.674        5015.207         355.159          48.000  
> 2018  4 22 11 21 10.7688020  0  5                     
G 1  22812736.361       31512.629        2004.543          49.250  
G11  23474624.820       30528.267        2013.229          44.250  
G17  21143077.843      -34600.286       -2323.100          51.750  
G22  22987296.808       11678.026         802.238          46.250  
G28  20711476.979        5050.660         354.331          48.250  
> 2018  4 22 11 21 10.8688020  0  5                     
G 1  22814606.261       31713.113        2005.430          49.250  
G11  23476494.767       30729.626        2013.222          44.250  
G17  21144865.205      -34832.546       -2322.810          52.000  
G22  22989144.320       11758.305         802.756          46.250  
G28  20713317.022        5086.118         354.437          48.000  
> 2018  4 22 11 21 10.9688020  0  5                     
G 1  22816476.140       31913.608        2004.454          49.250  
G11  23478365.490       30931.034        2013.911          44.250  
G17  21146652.739      -35064.782       -2322.672          51.750  
G22  22990991.515       11838.599         802.592          46.500  
G28  20715154.048        5121.623         355.305          48.000  
> 2018  4 22 11 21 11.0688020  0  5                     
G 1  22818346.149       32114.095        2004.908          49.250  
G11  23480234.044       31132.390        2013.194          43.750  
G17  21148439.448      -35297.054       -2322.855          52.000  
G22  22992836.494       11918.874         803.000          46.250  
G28  20716991.953        5157.091         354.446          48.000  
> 2018  4 22 11 21 11.1688020  0  5                     
G 1  22820215.787       32314.593        2005.202          49.250  
G11  23482102.687       31333.784        2013.714          43.750  
G17  21150226.827      -35529.298       -2322.492          52.000  
G22  22994683.525       11999.157         802.861          46.500  
G28  20718832.259        5192.588         354.520          47.750  
> 2018  4 22 11 21 11.2688020  0  5                     
G 1  22822084.932       32515.112        2005.408          49.000  
G11  23483972.885       31535.188        2014.806          44.000  
G17  21152013.809      -35761.527       -2322.548          51.750  
G22  22996530.909       12079.485         803.886          46.250  
G28  20720668.083        5228.111         355.371          47.750  
> 2018  4 22 11 21 11.3688020  0  5                     
G 1  22823954.472       32715.616        2005.414          49.000  
G11  23485841.642       31736.587        2014.016          44.250  
G17  21153801.533      -35993.773       -2322.371          51.750  
G22  22998378.402       12159.786         802.861          46.250  
G28  20722506.594        5263.622         354.680          48.000  
> 2018  4 22 11 21 11.4688020  0  5                     
G 1  22825824.453       32916.092        2004.853          49.000  
G11  23487711.369       31937.955        2013.362          43.500  
G17  21155588.909      -36226.040       -2322.703          51.750  
G22  23000226.036       12240.074         803.102          46.500  
G28  20724346.227        5299.106         354.881          47.750  
> 2018  4 22 11 21 11.5688020  0  5                     
G 1  22827694.904       33116.578        2005.069          48.750  
G11  23489581.786       32139.319        2014.027          44.000  
G17  21157376.181      -36458.295       -2322.192          51.750  
G22  23002072.183       12320.360         803.979          46.500  
G28  20726183.667        5334.619         355.646          48.000  
> 2018  4 22 11 21 11.6688020  0  5                     
G 1  22829564.020       33317.072        2005.537          49.000  
G11  23491451.094       32340.694        2014.383          43.750  
G17  21159163.854      -36690.539       -2322.032          52.000  
G22  23003919.104       12400.676         803.052          46.250  
G28  20728023.201        5370.116         355.355          47.750  
> 2018  4 22 11 21 11.7688020  0  5                     
G 1  22831433.209       33517.572        2005.247          49.000  
G11  23493321.387       32542.101        2014.563          44.000  
G17  21160951.142      -36922.784       -2322.265          52.000  
G22  23005766.082       12480.998         803.822          46.250  
G28  20729860.629        5405.647         355.488          48.000  
> 2018  4 22 11 21 11.8688020  0  5                     
G 1  22833302.907       33718.078        2005.509          49.250  
G11  23495191.261       32743.492        2014.885          44.250  
G17  21162738.841      -37155.010       -2321.953          52.000  
G22  23007613.274       12561.329         803.883          46.500  
G28  20731698.656        5441.200         356.278          48.000  
> 2018  4 22 11 21 11.9688020  0  5                     
G 1  22835172.663       33918.642        2005.855          49.000  
G11  23497061.012       32944.954        2015.271          44.250  
G17  21164526.267      -37387.180       -2321.271          52.000  
G22  23009459.894       12641.731         804.690          46.250  
G28  20733538.854        5476.793         356.347          48.000  
> 2018  4 22 11 21 12.0688020  0  5                     
G 1  22837042.709       34119.249        2007.153          49.000  
G11  23498931.705       33146.649        2027.601          44.000  
G17  21166313.624      -37619.321       -2320.870          52.250  
G22  23011306.906       12722.166         805.690          46.500  
G28  20735375.974        5512.438         357.904          48.000  
> 2018  4 22 11 21 12.1688020  0  5                     
G 1  22838912.638       34320.008        2007.891          49.250  
G11  23500801.917       33348.076        2016.829          44.250  
G17  21168101.630      -37851.290       -2319.608          52.250  
G22  23013152.888       12802.753         805.551          46.500  
G28  20737215.305        5548.230         358.790          48.000  
> 2018  4 22 11 21 12.2688020  0  5                     
G 1  22840782.895       34520.743        2007.538          49.250  
G11  23502672.444       33549.709        2015.773          44.000  
G17  21169888.833      -38083.295       -2320.542          52.000  
G22  23015000.386       12883.332         806.095          46.000  
G28  20739053.620        5584.021         357.603          48.000  
> 2018  4 22 11 21 12.3688020  0  5                     
G 1  22842653.495       34721.599        2009.570          49.000  
G11  23504542.709       33751.435        2017.085          44.000  
G17  21171676.433      -38315.187       -2318.570          52.000  
G22  23016846.610       12964.023         807.390          46.250  
G28  20740890.219        5619.900         360.159          48.000  
> 2018  4 22 11 21 12.4688020  0  5                     
G 1  22844522.595       34922.499        2008.688          49.000  
G11  23506412.406       33953.240        2018.933          43.750  
G17  21173463.572      -38547.009       -2318.211          52.000  
G22  23018694.742       13044.775         808.351          46.250  
G28  20742729.566        5655.878         360.087          47.750  
> 2018  4 22 11 21 12.5688020  0  5                     
G 1  22846391.891       35123.468        2009.403          49.000  
G11  23508281.862       34155.086        2018.889          44.250  
G17  21175251.057      -38778.787       -2318.006          52.000  
G22  23020541.905       13125.583         807.972          46.500  
G28  20744568.346        5691.891         360.451          48.000  
> 2018  4 22 11 21 12.6688020  0  5                     
G 1  22848261.575       35324.470        2010.838          49.000  
G11  23510151.230       34356.986        2019.610          43.750  
G17  21177038.865      -39010.511       -2316.981          52.000  
G22  23022389.524       13206.453         808.724          46.250  
G28  20746406.430        5727.952         360.410          48.250  
> 2018  4 22 11 21 12.7688020  0  5                     
G 1  22850131.152       35525.578        2011.358          49.250  
G11  23512021.351       34558.948        2019.530          43.750  
G17  21178826.776      -39242.140       -2315.875          51.750  
G22  23024236.044       13287.412         809.939          46.250  
G28  20748246.547        5764.121         362.128          47.750  
> 2018  4 22 11 21 12.8688020  0  5                     
G 1  22852001.650       35726.849        2013.524          48.500  
G11  23513890.273       34761.121        2022.937          43.750  
G17  21180614.368      -39473.602       -2313.756          51.750  
G22  23026082.887       13368.542         812.713          46.250  
G28  20750084.164        5800.472         364.524          47.750  
> 2018  4 22 11 21 12.9688020  0  5                     
G 1  22853872.009       35928.328        2015.407          49.000  
G11  23515761.239       34963.467        2024.289          43.750  
G17  21182401.209      -39704.867       -2312.442          51.750  
G22  23027929.585       13449.882         814.509          46.500  
G28  20751923.372        5836.993         365.687          47.750  
> 2018  4 22 11 21 13.0688020  0  5                     
G 1  22855742.032       36129.968        2016.838          49.250  
G11  23517631.707       35165.983        2025.703          44.000  
G17  21184188.660      -39935.966       -2310.059          52.000  
G22  23029776.515       13531.377         815.705          46.750  
G28  20753762.403        5873.718         367.837          48.000  
> 2018  4 22 11 21 13.1688020  0  5                     
G 1  22857611.767       36331.712        2017.913          49.250  
G11  23519501.744       35368.627        2026.453          44.000  
G17  21185975.970      -40166.950       -2309.783          52.000  
G22  23031623.888       13612.998         816.790          46.500  
G28  20755600.389        5910.549         369.070          48.000  
> 2018  4 22 11 21 13.2688020  0  5                     
G 1  22859481.939       36533.502        2018.248          49.250  
G11  23521372.119       35571.296        2026.578          44.000  
G17  21187763.498      -40397.892       -2309.578          52.000  
G22  23033471.644       13694.661         816.282          46.000  
G28  20757440.285        5947.419         368.732          48.000  
> 2018  4 22 11 21 13.3688020  0  5                     
G 1  22861351.495       36735.316        2017.520          49.250  
G11  23523242.328       35773.996        2025.632          44.000  
G17  21189551.308      -40628.798       -2309.609          52.000  
G22  23035318.383       13776.374         816.436          46.500  
G28  20759276.935        5984.330         368.105          47.750  
> 2018  4 22 11 21 13.4688020  0  5                     
G 1  22863221.053       36937.079        2016.650          49.000  
G11  23525111.289       35976.637        2024.894          44.000  
G17  21191338.357      -40859.775       -2310.713          51.750  
G22  23037164.834       13858.001         815.862          45.750  
G28  20761114.955        6021.183         367.142          47.750  
> 2018  4 22 11 21 13.5688020  0  5                     
G 1  22865091.626       37138.693        2015.671          49.000  
G11  23526981.877       36179.147        2025.473          44.000  
G17  21193126.070      -41090.878       -2311.206          52.000  
G22  23039010.869       13939.509         814.544          46.250  
G28  20762955.240        6057.909         366.889          48.000  
> 2018  4 22 11 21 13.6688020  0  5                     
G 1  22866961.630       37340.279        2015.942          49.000  
G11  23528852.328       36381.600        2024.187          44.000  
G17  21194913.999      -41322.028       -2311.828          52.000  
G22  23040858.024       14020.964         813.871          46.250  
G28  20764791.239        6094.592         367.064          47.750  
> 2018  4 22 11 21 13.7688020  0  5                     
G 1  22868831.193       37541.787        2015.071          48.750  
G11  23530721.963       36584.024        2024.641          43.750  
G17  21196701.977      -41553.233       -2312.116          52.000  
G22  23042704.492       14102.398         813.934          46.250  
G28  20766629.441        6131.211         365.560          48.000  
> 2018  4 22 11 21 13.8688020  0  5                     
G 1  22870701.246       37743.276        2014.857          49.000  
G11  23532592.319       36786.367        2023.931          44.000  
G17  21198489.832      -41784.483       -2312.500          52.000  
G22  23044552.115       14183.773         813.845          46.250  
G28  20768469.069        6167.806         366.121          48.000  
> 2018  4 22 11 21 13.9688020  0  5                     
G 1  22872571.281       37944.738        2014.724          49.000  
G11  23534462.798       36988.727        2024.184          44.250  
G17  21200277.022      -42015.734       -2312.588          52.000  
G22  23046399.746       14265.143         813.015          46.500  
G28  20770306.589        6204.390         365.831          48.000  
> 2018  4 22 11 21 14.0688020  0  5                     
G 1  22874440.736       38146.148        2013.533          49.250  
G11  23536333.153       37191.014        2022.779          43.750  
G17  21202065.076      -42247.057       -2313.472          52.000  
G22  23048246.734       14346.461         813.592          46.250  
G28  20772146.516        6240.919         365.418          48.000  
> 2018  4 22 11 21 14.1688020  0  5                     
G 1  22876310.575       38347.552        2014.093          49.000  
G11  23538202.280       37393.304        2023.514          43.750  
G17  21203852.620      -42478.365       -2313.121          52.000  
G22  23050092.827       14427.776         813.182          46.250  
G28  20773984.033        6277.443         365.949          48.000  
> 2018  4 22 11 21 14.2688020  0  5                     
G 1  22878180.404       38548.982        2014.225          49.250  
G11  23540071.840       37595.607        2022.670          43.750  
G17  21205640.151      -42709.670       -2313.459          52.000  
G22  23051940.745       14509.105         812.673          46.500  
G28  20775821.782        6313.998         364.978          48.000  
> 2018  4 22 11 21 14.3688020  0  5                     
G 1  22880050.118       38750.343        2013.612          49.000  
G11  23541942.135       37797.863        2022.640          43.750  
G17  21207427.842      -42941.019       -2313.932          52.250  
G22  23053787.493       14590.392         812.453          46.250  
G28  20777662.640        6350.492         364.672          48.000  
> 2018  4 22 11 21 14.4688020  0  5                     
G 1  22881920.010       38951.739        2013.949          49.250  
G11  23543811.504       38000.128        2022.428          44.000  
G17  21209215.440      -43172.355       -2313.818          52.000  
G22  23055635.595       14671.700         812.868          46.250  
G28  20779500.093        6387.018         364.898          48.000  
> 2018  4 22 11 21 14.5688020  0  5                     
G 1  22883789.553       39153.091        2013.673          49.250  
G11  23545681.371       38202.366        2022.281          44.000  
G17  21211003.196      -43403.727       -2314.120          52.000  
G22  23057483.208       14752.976         812.603          46.500  
G28  20781339.136        6423.505         364.678          48.000  
> 2018  4 22 11 21 14.6688020  0  5                     
G 1  22885659.959       39354.369        2013.589          49.250  
G11  23547551.672       38404.515        2022.840          43.750  
G17  21212790.286      -43635.181       -2314.690          52.000  
G22  23059329.511       14834.167         811.966          46.250  
G28  20783177.714        6459.921         364.333          48.000  
> 2018  4 22 11 21 14.7688020  0  5                     
G 1  22887529.414       39555.635        2012.658          49.000  
G11  23549423.624       38606.662        2020.996          44.000  
G17  21214577.701      -43866.621       -2314.753          52.000  
G22  23061175.901       14915.389         811.863          46.500  
G28  20785015.151        6496.347         363.742          47.750  
> 2018  4 22 11 21 14.8688020  0  5                     
G 1  22889399.906       39756.862        2012.042          49.000  
G11  23551293.634       38808.769        2020.309          43.750  
G17  21216365.393      -44098.107       -2315.156          52.000  
G22  23063023.698       14996.539         811.691          46.250  
G28  20786854.487        6532.724         364.293          47.750  
> 2018  4 22 11 21 14.9688020  0  5                     
G 1  22891270.275       39958.073        2012.900          49.250  
G11  23553164.140       39010.875        2022.812          44.000  
G17  21218153.042      -44329.607       -2314.459          52.250  
G22  23064870.110       15077.692         812.452          46.500  
G28  20788692.047        6569.103         365.084          47.750  
> 2018  4 22 11 21 15.0688020  0  5                     
G 1  22893139.956       40159.384        2012.998          49.000  
G11  23555033.923       39213.049        2021.700          44.000  
G17  21219940.536      -44561.020       -2314.247          52.000  
G22  23066717.449       15158.954         812.808          46.500  
G28  20790529.979        6605.565         364.889          48.000  
> 2018  4 22 11 21 15.1688020  0  5                     
G 1  22895009.696       40360.715        2013.452          49.250  
G11  23556904.018       39415.264        2022.111          44.000  
G17  21221727.701      -44792.405       -2314.055          52.000  
G22  23068565.128       15240.221         812.745          46.500  
G28  20792370.141        6642.055         365.317          47.750  
> 2018  4 22 11 21 15.2688020  0  5                     
G 1  22896880.322       40562.112        2014.535          49.250  
G11  23558774.583       39617.553        2022.451          44.000  
G17  21223514.998      -45023.715       -2312.604          52.000  
G22  23070412.475       15321.586         813.955          46.500  
G28  20794207.097        6678.636         365.509          47.750  
> 2018  4 22 11 21 15.3688020  0  5                     
G 1  22898750.237       40763.580        2015.697          49.250  
G11  23560643.957       39819.875        2023.526          43.750  
G17  21225302.944      -45254.978       -2312.717          52.000  
G22  23072259.008       15402.987         814.112          46.500  
G28  20796045.992        6715.266         366.479          47.500  
> 2018  4 22 11 21 15.4688020  0  5                     
G 1  22900620.061       40965.079        2015.574          49.250  
G11  23562514.550       40022.259        2023.297          43.750  
G17  21227090.108      -45486.193       -2312.312          52.000  
G22  23074106.503       15484.456         815.235          46.000  
G28  20797884.904        6751.943         366.456          47.750  
> 2018  4 22 11 21 15.5688020  0  5                     
G 1  22902490.312       41166.572        2015.434          49.000  
G11  23564385.151       40224.629        2022.830          44.250  
G17  21228877.944      -45717.415       -2312.557          52.000  
G22  23075953.263       15565.899         813.807          46.250  
G28  20799722.227        6788.616         366.759          47.500  
> 2018  4 22 11 21 15.6688020  0  5                     
G 1  22904360.440       41368.084        2015.391          49.000  
G11  23566255.880       40427.017        2023.134          44.250  
G17  21230665.936      -45948.620       -2312.224          52.000  
G22  23077799.190       15647.380         814.797          46.500  
G28  20801562.038        6825.315         367.005          47.750  
> 2018  4 22 11 21 15.7688020  0  5                     
G 1  22906230.465       41569.606        2016.379          49.250  
G11  23568126.253       40629.407        2024.489          43.750  
G17  21232453.430      -46179.821       -2311.884          52.250  
G22  23079647.109       15728.859         814.597          46.250  
G28  20803400.077        6862.013         367.585          47.750  
> 2018  4 22 11 21 15.8688020  0  5                     
G 1  22908100.334       41771.095        2015.843          49.000  
G11  23569995.834       40831.789        2024.111          44.000  
G17  21234241.051      -46411.026       -2312.130          52.000  
G22  23081494.990       15810.345         814.911          46.250  
G28  20805238.573        6898.712         366.236          47.750  
> 2018  4 22 11 21 15.9688020  0  5                     
G 1  22909970.014       41972.546        2014.402          49.000  
G11  23571865.695       41034.125        2023.340          44.000  
G17  21236028.866      -46642.284       -2312.872          52.000  
G22  23083341.533       15891.764         814.111          46.500  
G28  20807077.794        6935.364         366.340          47.750  
> 2018  4 22 11 21 16.0688020  0  5                     
G 1  22911840.383       42173.978        2014.443          49.000  
G11  23573735.213       41236.434        2023.611          44.000  
G17  21237816.334      -46873.568       -2312.244          52.000  
G22  23085188.310       15973.176         813.978          46.500  
G28  20808914.383        6971.997         366.744          47.750  
> 2018  4 22 11 21 16.1688020  0  5                     
G 1  22913710.193       42375.429        2014.632          49.000  
G11  23575605.168       41438.767        2023.598          44.250  
G17  21239604.226      -47104.813       -2312.149          52.000  
G22  23087035.283       16054.627         815.680          46.500  
G28  20810754.623        7008.656         367.068          47.750  
> 2018  4 22 11 21 16.2688020  0  5                     
G 1  22915579.477       42576.917        2014.489          49.000  
G11  23577475.158       41641.128        2023.225          44.250  
G17  21241391.698      -47336.037       -2312.890          52.000  
G22  23088882.698       16136.098         814.268          46.500  
G28  20812593.220        7045.352         366.234          47.750  
> 2018  4 22 11 21 16.3688020  0  5                     
G 1  22917448.965       42778.365        2014.948          49.000  
G11  23579345.129       41843.450        2023.719          44.250  
G17  21243179.467      -47567.308       -2312.557          52.000  
G22  23090729.397       16217.515         814.148          46.500  
G28  20814430.720        7082.010         366.932          47.750  
> 2018  4 22 11 21 16.4688020  0  5                     
G 1  22919318.693       42979.751        2013.479          49.000  
G11  23581215.296       42045.706        2021.064          44.250  
G17  21244966.511      -47798.619       -2313.830          52.000  
G22  23092576.702       16298.913         812.614          46.750  
G28  20816271.631        7118.620         365.264          47.500  
> 2018  4 22 11 21 16.5688020  0  5                     
G 1  22921189.033       43181.091        2013.560          49.000  
G11  23583085.993       42247.930        2021.560          44.250  
G17  21246754.184      -48029.996       -2314.202          52.000  
G22  23094424.662       16380.243         813.161          46.500  
G28  20818108.555        7155.181         365.166          47.750  
> 2018  4 22 11 21 16.6688020  0  5                     
G 1  22923057.885       43382.401        2013.100          49.000  
G11  23584956.645       42450.108        2022.410          44.000  
G17  21248541.772      -48261.394       -2314.234          52.000  
G22  23096271.920       16461.555         812.878          46.500  
G28  20819947.265        7191.714         365.360          47.500  
> 2018  4 22 11 21 16.7688020  0  5                     
G 1  22924927.959       43583.692        2013.714          48.750  
G11  23586826.391       42652.294        2022.718          44.000  
G17  21250329.275      -48492.794       -2313.181          52.000  
G22  23098117.980       16542.850         813.146          46.500  
G28  20821786.828        7228.244         365.491          47.750  
> 2018  4 22 11 21 16.8688020  0  5                     
G 1  22926797.828       43785.017        2012.643          49.000  
G11  23588696.412       42854.479        2021.940          44.000  
G17  21252117.094      -48724.174       -2314.406          52.000  
G22  23099964.843       16624.195         812.784          46.250  
G28  20823624.234        7264.813         365.148          47.500  
> 2018  4 22 11 21 16.9688020  0  5                     
G 1  22928667.919       43986.322        2013.114          49.250  
G11  23590565.634       43056.648        2021.458          44.250  
G17  21253904.049      -48955.584       -2314.214          52.000  
G22  23101811.028       16705.506         813.287          46.500  
G28  20825464.316        7301.343         365.028          47.750  
> 2018  4 22 11 21 17.0688020  0  5                     
G 1  22930538.081       44187.588        2013.461          49.250  
G11  23592435.956       43258.796        2021.496          44.000  
G17  21255691.939      -49187.021       -2314.401          52.000  
G22  23103658.044       16786.781         812.407          46.250  
G28  20827302.076        7337.854         365.744          47.750  
> 2018  4 22 11 21 17.1688020  0  5                     
G 1  22932408.071       44388.871        2013.598          49.250  
G11  23594306.285       43460.961        2022.534          44.000  
G17  21257479.093      -49418.436       -2313.333          52.000  
G22  23105505.715       16868.088         812.966          46.250  
G28  20829140.163        7374.393         366.309          47.750  
> 2018  4 22 11 21 17.2688020  0  5                     
G 1  22934278.034       44590.246        2014.527          49.250  
G11  23596176.117       43663.200        2021.837          44.000  
G17  21259266.447      -49649.765       -2313.311          52.000  
G22  23107353.107       16949.490         814.140          46.750  
G28  20830980.359        7411.014         366.589          47.750  
> 2018  4 22 11 21 17.3688020  0  5                     
G 1  22936147.533       44791.693        2015.005          48.750  
G11  23598046.066       43865.517        2024.001          44.250  
G17  21261054.484      -49881.023       -2312.307          52.000  
G22  23109201.202       17030.958         814.906          46.500  
G28  20832817.524        7447.716         367.268          47.750  
> 2018  4 22 11 21 17.4688020  0  5                     
G 1  22938017.490       44993.207        2015.922          49.250  
G11  23599917.098       44067.890        2024.338          44.250  
G17  21262841.870      -50112.213       -2311.829          52.000  
G22  23111047.314       17112.518         817.026          46.500  
G28  20834656.820        7484.490         368.854          47.750  
> 2018  4 22 11 21 17.5688020  0  5                     
G 1  22939887.196       45194.778        2016.393          49.250  
G11  23601786.963       44270.353        2024.878          44.000  
G17  21264629.621      -50343.336       -2310.789          52.000  
G22  23112893.773       17194.115         817.117          46.250  
G28  20836495.605        7521.325         369.278          47.750  
> 2018  4 22 11 21 17.6688020  0  5                     
G 1  22941756.708       45396.433        2017.139          49.250  
G11  23603656.920       44472.878        2025.693          44.000  
G17  21266417.561      -50574.381       -2310.219          51.750  
G22  23114740.087       17275.812         817.274          46.000  
G28  20838333.357        7558.254         369.339          47.500  
> 2018  4 22 11 21 17.7688020  0  5                     
G 1  22943626.281       45598.104        2017.441          49.000  
G11  23605527.872       44675.418        2026.513          44.000  
G17  21268205.012      -50805.415       -2310.156          51.750  
G22  23116588.188       17357.512         817.125          46.500  
G28  20840174.112        7595.182         369.220          47.750  
> 2018  4 22 11 21 17.8688020  0  5                     
G 1  22945496.675       45799.789        2017.225          49.000  
G11  23607398.172       44877.984        2026.403          44.000  
G17  21269992.747      -51036.414       -2310.300          51.750  
G22  23118435.844       17439.254         817.031          46.500  
G28  20842010.850        7632.158         369.579          47.500  
> 2018  4 22 11 21 17.9688020  0  5                     
G 1  22947366.723       46001.506        2017.540          49.000  
G11  23609268.251       45080.558        2025.914          44.250  
G17  21271780.156      -51267.398       -2309.716          52.000  
G22  23120282.148       17521.020         817.878          46.000  
G28  20843849.634        7669.149         369.839          47.750  
> 2018  4 22 11 21 18.0688020  0  5                     
G 1  22949237.298       46203.197        2016.715          49.000  
G11  23611136.605       45283.057        1972.461          43.750  
G17  21273568.085      -51498.405       -2310.621          52.000  
G22  23122129.270       17602.773         817.743          46.500  
G28  20845688.464        7706.126         369.022          48.000  
> 2018  4 22 11 21 18.3688020  0  5                     
G 1  22954846.184       46808.201        2015.484          49.000  
G11  23616745.239       45890.756        2024.636          44.000  
G17  21278931.015      -52191.475       -2311.147          52.000  
G22  23127670.971       17847.964         816.827          46.500  
G28  20851204.574        7817.023         368.783          47.750  
> 2018  4 22 11 21 18.4688020  0  5                     
G 1  22956715.901       47009.780        2015.241          49.000  
G11  23618615.572       46093.205        2024.088          44.000  
G17  21280718.272      -52422.588       -2311.585          52.000  
G22  23129517.729       17929.622         816.575          46.250  
G28  20853042.695        7853.916         368.714          47.750  
> 2018  4 22 11 21 18.5688020  0  5                     
G 1  22958585.393       47211.318        2014.826          49.000  
G11  23620487.274       46295.613        2023.694          43.750  
G17  21282506.085      -52653.741       -2312.240          52.000  
G22  23131364.005       18011.212         814.814          46.250  
G28  20854882.486        7890.759         367.829          48.000  
> 2018  4 22 11 21 18.6688020  0  5                     
G 1  22960455.996       47412.752        2013.770          49.000  
G11  23622357.842       46497.905        2022.617          43.750  
G17  21284293.375      -52885.003       -2313.082          52.000  
G22  23133211.245       18092.722         813.833          46.500  
G28  20856719.280        7927.494         366.566          48.000  
> 2018  4 22 11 21 18.7688020  0  5                     
G 1  22962325.483       47614.104        2013.944          49.000  
G11  23624227.731       46700.130        2021.802          43.750  
G17  21286080.670      -53116.330       -2313.114          51.750  
G22  23135058.687       18174.165         814.647          46.500  
G28  20858558.700        7964.163         366.566          48.000  
> 2018  4 22 11 21 18.8688020  0  5                     
G 1  22964195.587       47815.439        2012.896          48.750  
G11  23626097.331       46902.344        2022.188          43.500  
G17  21287868.538      -53347.682       -2313.581          52.000  
G22  23136905.894       18255.584         814.463          46.250  
G28  20860396.931        8000.817         366.095          48.000  
> 2018  4 22 11 21 18.9688020  0  5                     
G 1  22966065.364       48016.744        2012.721          49.000  
G11  23627967.242       47104.500        2021.895          43.500  
G17  21289655.892      -53579.076       -2314.020          51.750  
G22  23138753.393       18336.959         813.603          46.500  
G28  20862235.040        8037.437         366.215          47.750  
> 2018  4 22 11 21 19.0688020  0  5                     
G 1  22967935.377       48217.985        2012.151          48.750  
G11  23629836.967       47306.620        2020.038          43.750  
G17  21291443.674      -53810.522       -2314.897          51.750  
G22  23140600.744       18418.296         812.681          46.250  
G28  20864075.014        8074.013         365.926          47.750  
> 2018  4 22 11 21 19.1688020  0  5                     
G 1  22969805.433       48419.169        2011.626          49.000  
G11  23631705.836       47508.667        2021.089          43.750  
G17  21293231.280      -54042.039       -2315.887          52.000  
G22  23142448.375       18499.570         811.866          46.750  
G28  20865911.846        8110.514         364.858          48.000  
> 2018  4 22 11 21 19.2688020  0  5                     
G 1  22971675.213       48620.313        2011.329          49.000  
G11  23633576.168       47710.682        2020.562          43.750  
G17  21295018.780      -54273.584       -2316.161          52.250  
G22  23144294.595       18580.821         812.300          46.500  
G28  20867750.421        8147.000         364.822          47.750  
> 2018  4 22 11 21 19.3688020  0  5                     
G 1  22973544.842       48821.463        2011.889          48.750  
G11  23635446.051       47912.700        2020.347          43.750  
G17  21296806.059      -54505.100       -2314.876          52.000  
G22  23146142.293       18662.072         813.212          46.750  
G28  20869590.145        8183.498         365.349          47.750  
> 2018  4 22 11 21 19.4688020  0  5                     
G 1  22975414.599       49022.720        2012.833          49.000  
G11  23637316.637       48114.835        2022.021          44.000  
G17  21298593.046      -54736.530       -2314.177          51.750  
G22  23147988.459       18743.429         813.580          46.250  
G28  20871427.168        8220.098         366.436          48.000  
> 2018  4 22 11 21 19.5688020  0  5                     
G 1  22977284.405       49224.032        2013.267          49.000  
G11  23639186.017       48317.015        2021.947          44.000  
G17  21300380.827      -54967.899       -2313.678          51.750  
G22  23149835.157       18824.857         814.234          46.500  
G28  20873266.759        8256.753         366.117          48.000  
> 2018  4 22 11 21 19.6688020  0  5                     
G 1  22979154.112       49425.491        2014.714          48.750  
G11  23641056.455       48519.337        2024.326          43.750  
G17  21302168.464      -55199.130       -2312.066          52.000  
G22  23151683.122       18906.419         815.937          46.500  
G28  20875104.342        8293.562         368.281          47.750  
> 2018  4 22 11 21 19.7688020  0  5                     
G 1  22981023.441       49626.948        2014.799          48.750  
G11  23642925.898       48721.673        2023.143          44.000  
G17  21303956.299      -55430.352       -2312.180          52.250  
G22  23153529.926       18988.004         815.147          46.500  
G28  20876941.928        8330.383         367.958          47.750  
> 2018  4 22 11 21 19.8688020  0  5                     
G 1  22982893.887       49828.486        2015.348          48.750  
G11  23644797.384       48924.057        2023.967          44.250  
G17  21305743.970      -55661.498       -2311.513          52.000  
G22  23155377.590       19069.667         816.458          46.250  
G28  20878782.880        8367.272         368.730          47.750  
> 2018  4 22 11 21 19.9688020  0  5                     
G 1  22984763.950       50030.039        2015.615          48.750  
G11  23646667.019       49126.483        2025.127          43.750  
G17  21307531.487      -55892.630       -2311.235          52.000  
G22  23157224.631       19151.340         816.904          46.500  
G28  20880620.355        8404.201         369.499          48.000  
> 2018  4 22 11 21 20.0688020  0  5                     
G 1  22986633.910       50231.561        2015.355          49.000  
G11  23648537.877       49328.877        2023.574          44.000  
G17  21309319.409      -56123.788       -2311.653          52.000  
G22  23159071.066       19232.986         816.839          46.500  
G28  20882459.995        8441.093         368.921          48.250  
> 2018  4 22 11 21 20.1688020  0  5                     
G 1  22988503.545       50433.086        2015.220          49.000  
G11  23650408.006       49531.259        2024.447          43.500  
G17  21311106.733      -56354.951       -2312.324          51.750  
G22  23160918.866       19314.631         816.075          46.500  
G28  20884298.908        8477.977         369.380          47.750  
> 2018  4 22 11 21 20.2688020  0  5                     
G 1  22990374.145       50634.568        2014.992          48.250  
G11  23652278.505       49733.610        2024.096          43.750  
G17  21312894.239      -56586.134       -2311.988          51.500  
G22  23162765.910       19396.254         816.041          46.250  
G28  20886136.756        8514.841         368.944          47.750  
