     3.02           OBSERVATION DATA    M: Mixed            RINEX VERSION / TYPE
GNSS-SDRLIB v1.1                        20180429 102200 UTC PGM / RUN BY / DATE 
                                                            MARKER NAME         
                                                            MARKER NUMBER       
                                                            MARKER TYPE         
                                                            OBSERVER / AGENCY   
GNSS-SDRLIB         GNSS-SDRLIB         1.1                 REC # / TYPE / VERS 
                                                            ANT # / TYPE        
        0.0000        0.0000        0.0000                  APPROX POSITION XYZ 
        0.0000        0.0000        0.0000                  ANTENNA: DELTA H/E/N
G    4 C1C L1C D1C S1C                                      SYS / # / OBS TYPES 
R    4 C1C L1C D1C S1C                                      SYS / # / OBS TYPES 
E    4 C1C L1C D1C S1C                                      SYS / # / OBS TYPES 
J    4 C1C L1C D1C S1C                                      SYS / # / OBS TYPES 
S    4 C1C L1C D1C S1C                                      SYS / # / OBS TYPES 
C    4 C1C L1C D1C S1C                                      SYS / # / OBS TYPES 
  1970     1     1     0     0    0.0000000     GPS         TIME OF FIRST OBS   
  1970     1     1     0     0    0.0000000     GPS         TIME OF LAST OBS    
G                                                           SYS / PHASE SHIFT   
R                                                           SYS / PHASE SHIFT   
E                                                           SYS / PHASE SHIFT   
J                                                           SYS / PHASE SHIFT   
S                                                           SYS / PHASE SHIFT   
C                                                           SYS / PHASE SHIFT   
  0                                                         GLONASS SLOT / FRQ #
 C1C    0.000 C1P    0.000 C2C    0.000 C2P    0.000        GLONASS COD/PHS/BIS 
                                                            END OF HEADER       
> 2018  4 22  0  0 14.6688020  0  1                     
G 3                     -8541.162        -833.753          42.750  
> 2018  4 22 11 21  6.1688020  0  1                     
G 3  20626900.428       -8566.569        -830.747          42.250  
> 2018  4 22 11 21  6.0688020  0  2                     
G 1  22000412.525       22082.099        1995.253          48.750  
G 3  20625066.338       -8483.926        -830.699          42.250  
> 2018  4 22 11 21  6.1688020  0  2                     
G 1  22002300.563       22282.729        2008.415          49.000  
G 3  20626900.428       -8566.569        -830.747          42.250  
> 2018  4 22 11 21  6.0688020  0  3                     
G 1  22000412.525       22082.175        2003.755          49.000  
G 3  20625066.338       -8483.926        -830.699          42.250  
G11  22662290.712       16110.866        2027.993          44.250  
> 2018  4 22 11 21  6.1688020  0  3                     
G 1  22002300.563       22282.632        2004.121          49.000  
G 3  20626900.428       -8566.569        -830.747          42.250  
G11  22664179.266       16311.932        2012.613          44.500  
> 2018  4 22 11 21  6.2688020  0  3                     
G 1  22004170.148       22483.134        2005.396          49.000  
G 3  20628717.240       -8649.660        -830.681          42.500  
G11  22666050.178       16513.465        2014.191          44.250  
> 2018  4 22 11 21  6.3688020  0  3                     
G 1  22006040.151       22683.736        2006.165          48.750  
G 3  20630532.032       -8732.620        -830.224          42.750  
G11  22667920.189       16714.969        2015.279          44.250  
> 2018  4 22 11 21  6.4688020  0  3                     
G 1  22007910.572       22884.392        2007.185          49.000  
G 3  20632347.317       -8815.522        -828.049          42.500  
G11  22669789.866       16916.519        2016.045          44.250  
> 2018  4 22 11 21  6.5688020  0  3                     
G 1  22009780.331       23085.084        2006.749          49.000  
G 3  20634164.508       -8898.388        -828.532          42.750  
G11  22671659.110       17118.110        2015.726          44.500  
> 2018  4 22 11 21  6.6688020  0  3                     
G 1  22011650.095       23285.809        2008.401          49.000  
G 3  20635980.085       -8981.214        -828.331          42.000  
G11  22673530.075       17319.753        2017.090          44.250  
> 2018  4 22 11 21  6.7688020  0  3                     
G 1  22013520.356       23486.642        2008.764          49.000  
G 3  20637795.853       -9063.914        -825.840          42.750  
G11  22675400.342       17521.477        2017.881          44.250  
> 2018  4 22 11 21  6.8688020  0  3                     
G 1  22015390.104       23687.513        2008.304          49.000  
G 3  20639611.847       -9146.599        -826.241          42.500  
G11  22677270.177       17723.250        2017.239          44.500  
> 2018  4 22 11 21  6.9688020  0  3                     
G 1  22017259.336       23888.441        2009.522          49.000  
G 3  20641426.353       -9229.192        -826.036          42.500  
G11  22679140.483       17925.075        2018.378          44.000  
> 2018  4 22 11 21  7.0688020  0  3                     
G 1  22019129.035       24089.377        2009.520          48.750  
G 3  20643241.790       -9311.825        -825.867          42.250  
G11  22681011.191       18126.907        2018.302          44.000  
> 2018  4 22 11 21  7.1688020  0  3                     
G 1  22020998.668       24290.332        2009.053          49.000  
G 3  20645058.729       -9394.379        -825.681          42.000  
G11  22682880.815       18328.770        2018.881          44.000  
> 2018  4 22 11 21  7.2688020  0  3                     
G 1  22022868.829       24491.255        2009.030          49.000  
G 3  20646874.890       -9476.966        -825.925          42.000  
G11  22684750.882       18530.581        2017.591          44.000  
> 2018  4 22 11 21  7.3688020  0  3                     
G 1  22024738.354       24692.153        2008.591          49.250  
G 3  20648690.208       -9559.583        -826.832          42.500  
G11  22686621.320       18732.381        2017.064          44.000  
> 2018  4 22 11 21  7.4688020  0  3                     
G 1  22026608.409       24893.068        2010.572          49.000  
G 3  20650505.780       -9642.187        -825.745          42.250  
G11  22688491.448       18934.206        2019.255          44.000  
> 2018  4 22 11 21  7.5688020  0  3                     
G 1  22028478.520       25094.025        2009.628          49.000  
G 3  20652321.872       -9724.729        -825.483          42.750  
G11  22690360.429       19136.059        2018.487          44.250  
> 2018  4 22 11 21  7.6688020  0  3                     
G 1  22030348.653       25294.968        2009.374          49.000  
G 3  20654137.307       -9807.294        -826.515          42.750  
G11  22692230.541       19337.881        2018.965          44.250  
> 2018  4 22 11 21  7.7688020  0  3                     
G 1  22032219.302       25495.870        2009.713          48.750  
G 3  20655953.721       -9889.881        -825.587          42.750  
G11  22694100.283       19539.682        2018.045          44.250  
> 2018  4 22 11 21  7.8688020  0  3                     
G 1  22034089.171       25696.747        2008.220          49.000  
G 3  20657769.671       -9972.496        -827.271          42.750  
G11  22695970.123       19741.460        2016.893          44.000  
> 2018  4 22 11 21  7.9688020  0  3                     
G 1  22035959.553       25897.629        2009.086          48.750  
G 3  20659585.421      -10055.081        -825.257          43.000  
G11  22697841.639       19943.232        2017.658          44.000  
> 2018  4 22 11 21  8.0688020  0  3                     
G 1  22037829.153       26098.489        2008.459          49.000  
G 3  20661400.990      -10137.678        -826.467          42.500  
G11  22699711.528       20145.019        2017.553          44.250  
> 2018  4 22 11 21  8.1688020  0  3                     
G 1  22039698.585       26299.345        2008.853          49.000  
G 3  20663216.338      -10220.294        -825.806          42.750  
G11  22701581.208       20346.759        2017.085          44.000  
> 2018  4 22 11 21  8.2688020  0  3                     
G 1  22041567.842       26500.223        2009.469          49.000  
G 3  20665032.290      -10302.889        -824.541          42.750  
G11  22703451.749       20548.526        2018.392          44.250  
> 2018  4 22 11 21  8.3688020  0  3                     
G 1  22043437.446       26701.140        2009.370          49.000  
G 3  20666847.928      -10385.412        -824.933          43.000  
G11  22705320.693       20750.354        2018.587          44.250  
> 2018  4 22 11 21  8.4688020  0  3                     
G 1  22045306.847       26902.017        2009.029          49.000  
G 3  20668664.184      -10467.999        -825.930          42.500  
G11  22707190.251       20952.127        2017.985          44.250  
> 2018  4 22 11 21  8.5688020  0  3                     
G 1  22047176.945       27102.931        2009.676          49.250  
G 3  20670479.999      -10550.512        -824.777          42.500  
G11  22709060.432       21153.933        2018.254          44.000  
> 2018  4 22 11 21  8.6688020  0  3                     
G 1  22049046.038       27303.839        2009.191          49.000  
G 3  20672297.041      -10633.031        -825.181          42.250  
G11  22710931.129       21355.752        2018.521          44.500  
> 2018  4 22 11 21  8.7688020  0  3                     
G 1  22050915.393       27504.711        2008.634          49.000  
G 3  20674111.960      -10715.624        -826.569          42.000  
G11  22712802.357       21557.492        2017.079          44.500  
> 2018  4 22 11 21  8.8688020  0  3                     
G 1  22052785.576       27705.523        2008.693          49.000  
G 3  20675927.256      -10798.243        -825.143          41.750  
G11  22714671.758       21759.214        2017.670          44.500  
> 2018  4 22 11 21  8.9688020  0  3                     
G 1  22054655.432       27906.354        2008.190          49.000  
G 3  20677742.778      -10880.864        -826.966          42.250  
G11  22716541.950       21960.944        2017.070          44.250  
> 2018  4 22 11 21  9.0688020  0  3                     
G 1  22056525.592       28107.199        2008.118          49.000  
G 3  20679558.152      -10963.385        -824.846          42.750  
G11  22718411.370       22162.690        2016.871          44.250  
> 2018  4 22 11 21  9.1688020  0  3                     
G 1  22058395.789       28308.053        2008.189          48.750  
G 3  20681374.429      -11045.967        -825.834          43.000  
G11  22720280.503       22364.436        2016.725          44.250  
> 2018  4 22 11 21  9.2688020  0  3                     
G 1  22060265.286       28508.892        2008.110          48.750  
G 3  20683190.885      -11128.529        -826.355          42.500  
G11  22722150.886       22566.188        2017.190          44.250  
> 2018  4 22 11 21  9.3688020  0  3                     
G 1  22062134.719       28709.711        2008.765          49.000  
G 3  20685006.447      -11211.104        -825.726          42.000  
G11  22724020.666       22767.886        2016.724          44.500  
> 2018  4 22 11 21  9.4688020  0  3                     
G 1  22064004.296       28910.537        2008.219          49.250  
G 3  20686822.133      -11293.648        -825.439          41.750  
G11  22725890.992       22969.597        2017.522          44.250  
> 2018  4 22 11 21  9.5688020  0  3                     
G 1  22065874.073       29111.317        2008.139          49.000  
G 3  20688638.540      -11376.292        -825.996          41.000  
G11  22727760.870       23171.266        2017.048          44.000  
> 2018  4 22 11 21  9.6688020  0  3                     
G 1  22067743.937       29311.996        2006.780          49.000  
G 3  20690454.911      -11459.020        -827.723          41.750  
G11  22729631.224       23372.851        2015.235          44.250  
> 2018  4 22 11 21  9.7688020  0  3                     
G 1  22069613.078       29512.643        2006.008          49.000  
G 3  20692270.150      -11541.759        -827.985          43.000  
G11  22731500.960       23574.384        2014.712          44.500  
> 2018  4 22 11 21  9.8688020  0  3                     
G 1  22071482.869       29713.268        2006.490          49.250  
G 3  20694086.441      -11624.483        -828.158          43.000  
G11  22733370.671       23775.917        2015.330          44.750  
> 2018  4 22 11 21  9.9688020  0  3                     
G 1  22073352.902       29913.840        2005.898          48.750  
G 3  20695903.551      -11707.258        -828.343          42.500  
G11  22735241.550       23977.372        2014.662          44.250  
> 2018  4 22 11 21 10.0688020  0  3                     
G 1  22075222.939       30114.358        2004.848          49.000  
G 3  20697719.261      -11790.103        -829.184          42.250  
G11  22737111.820       24178.778        2014.018          44.250  
> 2018  4 22 11 21 10.1688020  0  3                     
G 1  22077093.064       30314.843        2004.739          49.000  
G 3  20699534.576      -11872.990        -829.409          42.000  
G11  22738981.071       24380.161        2014.055          44.000  
> 2018  4 22 11 21 10.2688020  0  3                     
G 1  22078962.691       30515.255        2003.820          49.000  
G 3  20701349.471      -11955.936        -829.093          42.250  
G11  22740851.000       24581.454        2012.818          44.000  
> 2018  4 22 11 21 10.3688020  0  3                     
G 1  22080832.701       30715.655        2004.350          49.000  
G 3  20703166.226      -12038.868        -828.279          43.250  
G11  22742720.782       24782.759        2013.715          44.250  
> 2018  4 22 11 21 10.4688020  0  3                     
G 1  22082702.243       30916.101        2004.099          49.000  
G 3  20704982.521      -12121.749        -828.281          43.500  
G11  22744590.261       24984.099        2014.178          44.250  
> 2018  4 22 11 21 10.5688020  0  3                     
G 1  22084571.752       31116.537        2004.967          49.250  
G 3  20706797.964      -12204.646        -829.195          42.500  
G11  22746459.151       25185.422        2013.241          44.250  
> 2018  4 22 11 21 10.6688020  0  3                     
G 1  22086441.545       31317.006        2005.254          49.000  
G 3  20708612.909      -12287.529        -827.110          41.000  
G11  22748329.796       25386.768        2014.668          44.250  
> 2018  4 22 11 21 10.7688020  0  3                     
G 1  22088311.162       31517.472        2004.837          49.250  
G 3  20710428.003      -12370.406        -829.379          42.500  
G11  22750199.663       25588.128        2013.310          44.000  
> 2018  4 22 11 21 10.8688020  0  3                     
G 1  22090181.053       31717.955        2005.185          49.250  
G 3  20712245.672      -12453.225        -828.198          43.500  
G11  22752069.644       25789.486        2013.397          44.500  
> 2018  4 22 11 21 10.9688020  0  3                     
G 1  22092050.927       31918.452        2005.022          49.250  
G 3  20714062.464      -12536.026        -828.094          42.750  
G11  22753940.367       25990.895        2013.934          44.000  
> 2018  4 22 11 21 11.0688020  0  3                     
G 1  22093921.007       32118.938        2005.056          49.250  
G 3  20715877.245      -12618.873        -828.548          42.500  
G11  22755808.848       26192.250        2013.364          44.250  
> 2018  4 22 11 21 11.1688020  0  3                     
G 1  22095790.649       32319.438        2005.407          49.250  
G 3  20717692.402      -12701.640        -826.407          42.000  
G11  22757677.482       26393.643        2013.601          43.750  
> 2018  4 22 11 21 11.2688020  0  3                     
G 1  22097659.735       32519.955        2005.447          49.000  
G 3  20719508.505      -12784.439        -827.358          42.500  
G11  22759547.674       26595.050        2014.873          43.750  
> 2018  4 22 11 21 11.3688020  0  3                     
G 1  22099529.279       32720.458        2005.207          49.000  
G 3  20721324.955      -12867.242        -828.585          42.500  
G11  22761416.426       26796.449        2014.135          44.000  
> 2018  4 22 11 21 11.4688020  0  3                     
G 1  22101399.257       32920.933        2004.705          49.000  
G 3  20723140.295      -12950.047        -828.881          42.250  
G11  22763286.206       26997.814        2013.376          44.000  
> 2018  4 22 11 21 11.5688020  0  3                     
G 1  22103269.706       33121.419        2004.880          48.750  
G 3  20724955.460      -13032.833        -828.350          42.750  
G11  22765156.626       27199.180        2014.145          43.750  
> 2018  4 22 11 21 11.6688020  0  3                     
G 1  22105138.816       33321.913        2005.030          49.000  
G 3  20726771.351      -13115.612        -828.030          42.750  
G11  22767025.930       27400.555        2014.307          44.000  
> 2018  4 22 11 21 11.7688020  0  3                     
G 1  22107008.054       33522.415        2005.296          49.000  
G 3  20728588.401      -13198.365        -827.797          42.500  
G11  22768896.221       27601.962        2014.461          44.000  
> 2018  4 22 11 21 11.8688020  0  3                     
G 1  22108877.764       33722.923        2005.724          49.250  
G 3  20730403.169      -13281.140        -826.930          42.500  
G11  22770766.100       27803.353        2014.714          44.000  
> 2018  4 22 11 21 11.9688020  0  3                     
G 1  22110747.527       33923.489        2006.162          49.000  
G 3  20732218.918      -13363.823        -826.235          43.000  
G11  22772635.846       28004.817        2015.221          44.250  
> 2018  4 22 11 21 12.0688020  0  3                     
G 1  22112617.579       34123.993        2011.042          49.000  
G 3  20734035.830      -13446.462        -825.935          42.500  
G11  22774506.536       28206.311        2016.500          44.250  
> 2018  4 22 11 21 12.1688020  0  3                     
G 1  22114487.512       34324.829        2014.491          49.000  
G 3  20735851.114      -13528.938        -825.357          42.500  
G11  22776376.743       28407.942        2016.685          44.000  
> 2018  4 22 11 21 12.2688020  0  3                     
G 1  22116357.724       34525.594        2007.793          49.250  
G 3  20737667.909      -13611.456        -825.422          42.500  
G11  22778247.276       28609.574        2015.676          44.000  
> 2018  4 22 11 21 12.3688020  0  3                     
G 1  22118228.319       34726.450        2009.250          49.000  
G 3  20739483.817      -13693.830        -822.997          42.500  
G11  22780117.541       28811.304        2017.010          44.000  
> 2018  4 22 11 21 12.4688020  0  3                     
G 1  22120097.419       34927.348        2008.636          49.000  
G 3  20741298.973      -13776.156        -822.072          42.500  
G11  22781987.241       29013.112        2018.828          44.000  
> 2018  4 22 11 21 12.5688020  0  3                     
G 1  22121966.731       35128.321        2009.690          49.000  
G 3  20743114.212      -13858.420        -822.254          42.500  
G11  22783856.702       29214.959        2018.966          44.000  
> 2018  4 22 11 21 12.6688020  0  3                     
G 1  22123836.416       35329.325        2010.737          49.000  
G 3  20744930.426      -13940.607        -821.647          42.250  
G11  22785726.070       29416.859        2019.502          44.000  
> 2018  4 22 11 21 12.7688020  0  3                     
G 1  22125705.996       35530.433        2011.219          49.250  
G 3  20746746.313      -14022.738        -820.949          42.250  
G11  22787596.190       29618.826        2019.889          43.750  
> 2018  4 22 11 21 12.8688020  0  3                     
G 1  22127576.466       35731.711        2013.606          48.500  
G 3  20748562.369      -14104.656        -817.652          42.500  
G11  22789465.105       29821.003        2022.863          43.750  
> 2018  4 22 11 21 12.9688020  0  3                     
G 1  22129446.824       35933.193        2015.079          49.000  
G 3  20750379.071      -14186.380        -816.425          42.250  
G11  22791336.075       30023.353        2024.293          43.750  
> 2018  4 22 11 21 13.0688020  0  3                     
G 1  22131316.830       36134.840        2017.168          49.250  
G 3  20752194.277      -14267.944        -814.718          42.250  
G11  22793206.541       30225.871        2025.692          44.000  
> 2018  4 22 11 21 13.1688020  0  3                     
G 1  22133186.570       36336.583        2017.734          49.250  
G 3  20754011.387      -14349.396        -814.099          42.250  
G11  22795076.577       30428.518        2026.483          44.000  
> 2018  4 22 11 21 13.2688020  0  3                     
G 1  22135056.828       36538.377        2018.492          49.250  
G 3  20755827.728      -14430.778        -813.127          43.000  
G11  22796946.956       30631.188        2026.585          43.750  
> 2018  4 22 11 21 13.3688020  0  3                     
G 1  22136926.389       36740.188        2017.686          49.250  
G 3  20757643.537      -14512.132        -814.165          42.500  
G11  22798817.164       30833.886        2025.785          44.000  
> 2018  4 22 11 21 13.4688020  0  3                     
G 1  22138795.968       36941.950        2016.968          49.000  
G 3  20759460.167      -14593.545        -814.908          42.500  
G11  22800686.127       31036.526        2024.983          44.000  
> 2018  4 22 11 21 13.5688020  0  3                     
G 1  22140666.493       37143.564        2016.339          49.000  
G 3  20761276.097      -14675.092        -815.198          42.250  
G11  22802556.718       31239.035        2025.365          44.000  
> 2018  4 22 11 21 13.6688020  0  3                     
G 1  22142536.496       37345.144        2015.594          49.000  
G 3  20763091.802      -14756.685        -816.139          42.000  
G11  22804427.171       31441.486        2024.219          44.250  
> 2018  4 22 11 21 13.7688020  0  3                     
G 1  22144405.991       37546.657        2015.603          48.750  
G 3  20764907.607      -14838.327        -816.907          42.750  
G11  22806296.806       31643.911        2024.685          44.000  
> 2018  4 22 11 21 13.8688020  0  3                     
G 1  22146276.039       37748.142        2014.975          49.000  
G 3  20766723.361      -14919.991        -816.435          43.000  
G11  22808167.162       31846.251        2023.838          43.750  
> 2018  4 22 11 21 13.9688020  0  3                     
G 1  22148146.066       37949.602        2014.514          49.000  
G 3  20768539.170      -15001.674        -817.446          42.250  
G11  22810037.554       32048.612        2024.111          44.250  
> 2018  4 22 11 21 14.0688020  0  3                     
G 1  22150015.511       38151.012        2013.946          49.250  
G 3  20770355.855      -15083.425        -817.246          43.000  
G11  22811907.900       32250.898        2023.006          44.000  
> 2018  4 22 11 21 14.1688020  0  3                     
G 1  22151885.351       38352.417        2014.262          49.000  
G 3  20772172.440      -15165.141        -817.758          42.500  
G11  22813777.018       32453.187        2023.504          43.750  
> 2018  4 22 11 21 14.2688020  0  3                     
G 1  22153755.216       38553.847        2014.405          49.250  
G 3  20773988.238      -15246.835        -816.398          42.250  
G11  22815646.570       32655.489        2022.715          43.750  
> 2018  4 22 11 21 14.3688020  0  3                     
G 1  22155624.927       38755.208        2014.026          49.000  
G 3  20775803.631      -15328.597        -817.763          42.250  
G11  22817516.938       32857.744        2022.609          43.750  
> 2018  4 22 11 21 14.4688020  0  3                     
G 1  22157494.822       38956.599        2013.595          49.250  
G 3  20777619.459      -15410.323        -817.883          42.250  
G11  22819386.313       33060.010        2022.498          44.000  
> 2018  4 22 11 21 14.5688020  0  3                     
G 1  22159364.365       39157.953        2013.590          49.250  
G 3  20779434.793      -15492.085        -817.513          42.250  
G11  22821256.183       33262.247        2022.253          44.000  
> 2018  4 22 11 21 14.6688020  0  3                     
G 1  22161234.749       39359.227        2012.970          49.250  
G 3  20781250.745      -15573.926        -818.749          42.750  
G11  22823126.483       33464.397        2022.839          43.750  
> 2018  4 22 11 21 14.7688020  0  3                     
G 1  22163104.267       39560.493        2012.386          49.000  
G 3  20783067.953      -15655.753        -819.315          42.250  
G11  22824998.444       33666.540        2020.924          43.750  
> 2018  4 22 11 21 14.8688020  0  3                     
G 1  22164974.762       39761.716        2011.455          49.000  
G 3  20784883.835      -15737.600        -819.409          42.250  
G11  22826868.460       33868.645        2020.215          44.000  
> 2018  4 22 11 21 14.9688020  0  3                     
G 1  22166845.136       39962.932        2012.642          49.250  
G 3  20786699.700      -15819.490        -818.559          42.250  
G11  22828738.971       34070.757        2022.761          44.000  
> 2018  4 22 11 21 15.0688020  0  3                     
G 1  22168714.821       40164.244        2012.802          49.000  
G 3  20788515.289      -15901.270        -818.111          42.250  
G11  22830608.755       34272.930        2021.825          43.750  
> 2018  4 22 11 21 15.1688020  0  3                     
G 1  22170584.567       40365.575        2013.176          49.250  
G 3  20790330.412      -15983.008        -817.828          42.250  
G11  22832478.856       34475.145        2022.089          44.250  
> 2018  4 22 11 21 15.2688020  0  3                     
G 1  22172455.197       40566.978        2014.757          49.250  
G 3  20792145.360      -16064.693        -816.229          42.250  
G11  22834349.425       34677.434        2022.406          44.000  
> 2018  4 22 11 21 15.3688020  0  3                     
G 1  22174325.117       40768.444        2015.144          49.250  
G 3  20793963.135      -16146.289        -815.466          42.250  
G11  22836218.806       34879.761        2023.773          43.750  
> 2018  4 22 11 21 15.4688020  0  3                     
G 1  22176194.946       40969.943        2015.065          49.250  
G 3  20795779.999      -16227.854        -815.565          42.250  
G11  22838089.402       35082.144        2023.501          43.500  
> 2018  4 22 11 21 15.5688020  0  3                     
G 1  22178065.200       41171.439        2015.416          49.000  
G 3  20797596.064      -16309.424        -815.753          42.250  
G11  22839960.002       35284.513        2022.913          44.250  
> 2018  4 22 11 21 15.6688020  0  3                     
G 1  22179935.336       41372.949        2015.149          49.000  
G 3  20799412.081      -16390.955        -815.758          42.250  
G11  22841830.640       35486.901        2023.152          44.000  
> 2018  4 22 11 21 15.7688020  0  3                     
G 1  22181805.367       41574.470        2015.610          49.250  
G 3  20801227.673      -16472.480        -814.867          42.500  
G11  22843701.002       35689.295        2024.746          44.000  
> 2018  4 22 11 21 15.8688020  0  3                     
G 1  22183675.241       41775.963        2015.842          49.000  
G 3  20803042.285      -16554.025        -815.498          42.250  
G11  22845570.569       35891.673        2024.079          44.000  
> 2018  4 22 11 21 15.9688020  0  3                     
G 1  22185544.923       41977.410        2014.498          49.000  
G 3  20804859.857      -16635.608        -815.921          42.000  
G11  22847440.417       36094.009        2023.396          44.000  
> 2018  4 22 11 21 16.0688020  0  3                     
G 1  22187415.238       42178.841        2014.205          49.000  
G 3  20806676.166      -16717.201        -815.701          42.000  
G11  22849309.924       36296.317        2023.487          44.000  
> 2018  4 22 11 21 16.1688020  0  3                     
G 1  22189285.037       42380.297        2014.938          49.000  
G 3  20808493.099      -16798.768        -815.788          42.250  
G11  22851179.869       36498.652        2023.682          44.250  
> 2018  4 22 11 21 16.2688020  0  3                     
G 1  22191154.316       42581.781        2014.285          49.000  
G 3  20810308.838      -16880.298        -815.470          42.250  
G11  22853049.851       36701.011        2023.175          44.250  
> 2018  4 22 11 21 16.3688020  0  3                     
G 1  22193023.800       42783.230        2014.672          49.000  
G 3  20812123.958      -16961.873        -815.045          42.250  
G11  22854919.817       36903.333        2023.611          44.250  
> 2018  4 22 11 21 16.4688020  0  3                     
G 1  22194893.524       42984.616        2013.810          49.000  
G 3  20813939.833      -17043.486        -816.376          42.250  
G11  22856789.975       37105.587        2021.308          44.250  
> 2018  4 22 11 21 16.5688020  0  3                     
G 1  22196763.864       43185.953        2013.309          49.000  
G 3  20815755.507      -17125.168        -817.329          42.000  
G11  22858660.661       37307.808        2021.306          44.250  
> 2018  4 22 11 21 16.6688020  0  3                     
G 1  22198632.711       43387.264        2013.209          49.000  
G 3  20817571.628      -17206.849        -817.431          42.250  
G11  22860531.420       37509.989        2022.502          44.250  
> 2018  4 22 11 21 16.7688020  0  3                     
G 1  22200502.784       43588.558        2013.911          48.750  
G 3  20819388.430      -17288.539        -817.000          42.500  
G11  22862401.173       37712.175        2022.572          43.750  
> 2018  4 22 11 21 16.8688020  0  3                     
G 1  22202372.648       43789.880        2012.897          49.000  
G 3  20821202.647      -17370.181        -818.553          41.750  
G11  22864271.202       37914.359        2021.859          44.000  
> 2018  4 22 11 21 16.9688020  0  3                     
G 1  22204242.740       43991.183        2013.027          49.250  
G 3  20823018.108      -17451.881        -816.627          42.000  
G11  22866140.430       38116.530        2021.667          44.250  
> 2018  4 22 11 21 17.0688020  0  3                     
G 1  22206112.897       44192.450        2013.218          49.250  
G 3  20824833.755      -17533.587        -817.582          42.250  
G11  22868010.757       38318.675        2021.296          44.250  
> 2018  4 22 11 21 17.1688020  0  3                     
G 1  22207982.886       44393.737        2013.986          49.250  
G 3  20826649.146      -17615.257        -816.822          42.000  
G11  22869881.078       38520.844        2022.605          44.000  
> 2018  4 22 11 21 17.2688020  0  3                     
G 1  22209852.848       44595.113        2014.650          49.250  
G 3  20828465.672      -17696.841        -815.844          42.000  
G11  22871750.925       38723.082        2021.826          44.000  
> 2018  4 22 11 21 17.3688020  0  3                     
G 1  22211722.343       44796.562        2015.262          48.750  
G 3  20830283.350      -17778.347        -814.211          42.000  
G11  22873620.878       38925.402        2023.943          44.000  
> 2018  4 22 11 21 17.4688020  0  3                     
G 1  22213592.299       44998.073        2015.473          49.250  
G 3  20832101.070      -17859.794        -814.562          42.000  
G11  22875491.920       39127.777        2024.447          44.250  
> 2018  4 22 11 21 17.5688020  0  3                     
G 1  22215462.093       45199.649        2016.631          49.250  
G 3  20833916.510      -17941.158        -813.300          42.000  
G11  22877361.791       39330.241        2024.788          44.000  
> 2018  4 22 11 21 17.6688020  0  3                     
G 1  22217331.611       45401.305        2017.178          49.250  
G 3  20835732.334      -18022.426        -811.777          42.000  
G11  22879231.746       39532.768        2025.577          43.750  
> 2018  4 22 11 21 17.7688020  0  3                     
G 1  22219201.191       45602.975        2017.143          49.000  
G 3  20837548.735      -18103.705        -812.888          42.000  
G11  22881102.611       39735.309        2026.329          44.000  
> 2018  4 22 11 21 17.8688020  0  3                     
G 1  22221071.593       45804.661        2017.233          49.000  
G 3  20839363.815      -18184.939        -811.473          42.000  
G11  22882972.935       39937.874        2026.291          44.000  
> 2018  4 22 11 21 17.9688020  0  3                     
G 1  22222941.578       46006.379        2017.506          49.000  
G 3  20841180.482      -18266.158        -812.238          42.000  
G11  22884843.010       40140.449        2025.853          44.250  
> 2018  4 22 11 21 18.0688020  0  3                     
G 1  22224812.152       46208.068        2016.520          49.000  
G 3  20842997.435      -18347.379        -812.952          42.000  
G11  22886711.357       40342.950        1975.975          44.000  
> 2018  4 22 11 21 18.3688020  0  3                     
G 1  22230420.969       46813.074        2015.933          49.000  
G 3  20848443.239      -18591.091        -813.799          42.000  
G11  22892320.060       40950.645        2024.673          44.000  
> 2018  4 22 11 21 18.4688020  0  3                     
G 1  22232290.685       47014.647        2014.933          49.000  
G 3  20850259.526      -18672.399        -812.695          42.000  
G11  22894190.394       41153.090        2023.962          44.250  
> 2018  4 22 11 21 18.5688020  0  3                     
G 1  22234160.172       47216.187        2014.971          49.000  
G 3  20852074.633      -18753.756        -814.262          41.250  
G11  22896062.091       41355.500        2023.819          43.750  
> 2018  4 22 11 21 18.6688020  0  3                     
G 1  22236030.835       47417.616        2013.505          49.000  
G 3  20853891.385      -18835.191        -815.323          42.000  
G11  22897932.658       41557.789        2022.794          43.750  
> 2018  4 22 11 21 18.7688020  0  3                     
G 1  22237900.324       47618.973        2014.186          49.000  
G 3  20855708.755      -18916.729        -815.339          42.250  
G11  22899802.549       41760.012        2021.834          43.750  
> 2018  4 22 11 21 18.8688020  0  3                     
G 1  22239770.433       47820.306        2013.421          48.750  
G 3  20857525.357      -18998.274        -816.679          42.250  
G11  22901672.156       41962.225        2022.194          43.750  
> 2018  4 22 11 21 18.9688020  0  3                     
G 1  22241640.211       48021.607        2012.634          49.000  
G 3  20859341.583      -19079.843        -815.276          41.250  
G11  22903542.072       42164.381        2021.876          43.500  
> 2018  4 22 11 21 19.0688020  0  3                     
G 1  22243510.226       48222.849        2012.468          48.750  
G 3  20861156.971      -19161.450        -815.780          41.750  
G11  22905411.806       42366.496        2019.885          43.500  
> 2018  4 22 11 21 19.1688020  0  3                     
G 1  22245380.282       48424.028        2011.339          49.000  
G 3  20862971.993      -19243.125        -817.506          41.250  
G11  22907280.675       42568.544        2020.995          43.750  
> 2018  4 22 11 21 19.2688020  0  3                     
G 1  22247249.968       48625.174        2011.432          49.000  
G 3  20864787.126      -19324.845        -817.623          42.250  
G11  22909151.016       42770.559        2020.468          43.750  
> 2018  4 22 11 21 19.3688020  0  3                     
G 1  22249119.586       48826.328        2012.450          48.750  
G 3  20866603.345      -19406.520        -817.329          42.250  
G11  22911020.903       42972.578        2020.455          43.750  
> 2018  4 22 11 21 19.4688020  0  3                     
G 1  22250989.394       49027.585        2012.986          49.000  
G 3  20868420.861      -19488.099        -815.727          42.000  
G11  22912891.499       43174.717        2022.008          43.750  
> 2018  4 22 11 21 19.5688020  0  3                     
G 1  22252859.204       49228.900        2013.782          49.000  
G 3  20870237.469      -19569.609        -816.278          41.000  
G11  22914760.883       43376.898        2022.131          44.000  
> 2018  4 22 11 21 19.6688020  0  3                     
G 1  22254728.908       49430.359        2014.798          48.750  
G 3  20872052.970      -19650.981        -813.550          41.250  
G11  22916631.320       43579.223        2024.262          43.750  
> 2018  4 22 11 21 19.7688020  0  3                     
G 1  22256598.237       49631.817        2014.858          48.750  
G 3  20873868.761      -19732.352        -813.349          42.000  
G11  22918500.770       43781.558        2023.188          43.750  
> 2018  4 22 11 21 19.8688020  0  3                     
G 1  22258468.772       49833.355        2015.196          48.750  
G 3  20875684.448      -19813.640        -812.999          41.750  
G11  22920372.256       43983.944        2024.031          44.250  
> 2018  4 22 11 21 19.9688020  0  3                     
G 1  22260338.842       50034.910        2015.712          48.750  
G 3  20877500.367      -19894.894        -813.030          41.750  
G11  22922241.894       44186.371        2025.049          43.750  
> 2018  4 22 11 21 20.0688020  0  3                     
G 1  22262208.817       50236.428        2014.954          49.000  
G 3  20879317.553      -19976.175        -813.604          42.000  
G11  22924112.660       44388.762        2023.640          44.000  
> 2018  4 22 11 21 20.1688020  0  3                     
G 1  22264078.372       50437.955        2014.947          49.000  
G 3  20881134.340      -20057.444        -814.341          41.500  
G11  22925982.782       44591.148        2024.526          44.000  
> 2018  4 22 11 21 20.2688020  0  3                     
G 1  22265948.970       50639.438        2014.900          48.250  
G 3  20882949.456      -20138.752        -812.894          42.000  
G11  22927853.271       44793.497        2024.090          43.750  
> 2018  4 22 11 21 20.3688020  0  3                     
G 1  22267818.539       50840.894        2014.724          48.750  
G 3  20884766.302      -20220.118        -814.313          41.750  
G11  22929722.606       44995.826        2022.945          43.500  
> 2018  4 22 11 21 20.4688020  0  3                     
G 1  22269687.419       51042.330        2014.266          48.750  
G 3  20886582.219      -20301.447        -813.161          41.750  
G11  22931592.713       45198.124        2023.323          44.250  
> 2018  4 22 11 21 20.5688020  0  3                     
G 1  22271557.846       51243.730        2013.794          48.750  
G 3  20888400.330      -20382.814        -814.371          41.750  
G11  22933462.930       45400.393        2022.525          44.000  
> 2018  4 22 11 21 20.6688020  0  3                     
G 1  22273427.589       51445.088        2013.557          48.750  
G 3  20890217.333      -20464.213        -814.414          41.750  
G11  22935333.284       45602.616        2022.254          44.000  
> 2018  4 22 11 21 20.7688020  0  3                     
G 1  22275297.322       51646.335        2012.010          48.750  
G 3  20892032.659      -20545.739        -816.298          41.500  
G11  22937202.694       45804.738        2022.539          43.750  
> 2018  4 22 11 21 20.8688020  0  3                     
G 1  22277167.626       51847.665        2013.278          49.000  
G 3  20893849.190      -20627.160        -814.048          42.000  
G11  22939072.452       46006.918        2022.477          43.750  
> 2018  4 22 11 21 20.9688020  0  3                     
G 1  22279037.951       52049.024        2014.140          48.750  
G 3  20895664.838      -20708.582        -814.839          42.000  
G11  22940942.545       46209.149        2022.560          43.750  
> 2018  4 22 11 21 21.0688020  0  3                     
G 1  22280907.739       52250.464        2015.299          48.750  
G 3  20897480.108      -20789.879        -812.311          41.500  
G11  22942812.835       46411.447        2023.862          43.500  
> 2018  4 22 11 21 21.1688020  0  3                     
G 1  22282777.166       52451.945        2015.470          48.750  
G 3  20899296.835      -20871.159        -813.003          41.750  
G11  22944683.912       46613.795        2024.042          43.750  
> 2018  4 22 11 21 21.2688020  0  3                     
G 1  22284647.815       52653.504        2016.276          48.750  
G 3  20901112.207      -20952.325        -811.284          41.500  
G11  22946553.141       46816.229        2024.854          43.500  
> 2018  4 22 11 21 21.3688020  0  3                     
G 1  22286517.840       52855.102        2016.157          48.500  
G 3  20902928.853      -21033.451        -811.007          41.500  
G11  22948423.823       47018.690        2025.006          43.750  
> 2018  4 22 11 21 21.4688020  0  3                     
G 1  22288387.617       53056.731        2016.386          48.750  
G 3  20904745.334      -21114.550        -811.190          41.000  
G11  22950292.875       47221.185        2025.764          43.750  
> 2018  4 22 11 21 21.5688020  0  3                     
G 1  22290257.640       53258.408        2017.021          48.750  
G 3  20906560.775      -21195.602        -811.402          41.750  
G11  22952162.972       47423.721        2025.983          43.750  
> 2018  4 22 11 21 21.6688020  0  3                     
G 1  22292127.267       53460.148        2017.176          48.500  
G 3  20908377.421      -21276.578        -809.786          41.750  
G11  22954034.488       47626.323        2026.466          43.750  
> 2018  4 22 11 21 21.7688020  0  3                     
G 1  22293997.367       53661.867        2017.494          48.500  
G 3  20910192.367      -21357.545        -809.208          41.500  
G11  22955904.007       47828.908        2025.524          43.750  
> 2018  4 22 11 21 21.8688020  0  3                     
G 1  22295867.939       53863.610        2017.737          48.750  
G 3  20912008.479      -21438.517        -808.935          41.500  
G11  22957774.056       48031.518        2026.419          43.500  
> 2018  4 22 11 21 21.9688020  0  3                     
G 1  22297737.462       54065.327        2017.414          48.750  
G 3  20913824.987      -21519.517        -810.271          41.750  
G11  22959643.762       48234.086        2026.441          43.750  
> 2018  4 22 11 21 22.0688020  0  3                     
G 1  22299607.596       54267.072        2018.291          48.750  
G 3  20915641.504      -21600.471        -810.658          42.000  
G11  22961514.312       48436.703        2026.737          43.750  
> 2018  4 22 11 21 22.1688020  0  3                     
G 1  22301478.051       54468.798        2017.249          49.000  
G 3  20917457.681      -21681.418        -810.309          41.750  
G11  22963384.476       48639.286        2026.192          43.500  
> 2018  4 22 11 21 22.2688020  0  3                     
G 1  22303348.155       54670.536        2017.498          48.750  
G 3  20919273.421      -21762.381        -810.159          41.250  
G11  22965254.770       48841.885        2026.626          43.500  
> 2018  4 22 11 21 22.3688020  0  3                     
G 1  22305218.412       54872.253        2017.677          48.750  
G 3  20921089.303      -21843.329        -809.657          41.250  
G11  22967124.722       49044.452        2026.647          43.250  
> 2018  4 22 11 21 22.4688020  0  3                     
G 1  22307087.775       55073.911        2016.583          48.500  
G 3  20922904.540      -21924.345        -810.495          40.750  
G11  22968994.035       49246.984        2025.278          43.250  
> 2018  4 22 11 21 22.5688020  0  3                     
G 1  22308957.874       55275.510        2016.143          48.750  
G 3  20924720.444      -22005.401        -810.610          41.000  
G11  22970865.257       49449.437        2024.992          43.500  
> 2018  4 22 11 21 22.6688020  0  3                     
G 1  22310827.352       55477.089        2016.117          48.750  
G 3  20926537.192      -22086.472        -809.940          41.250  
G11  22972734.534       49651.881        2025.731          43.500  
> 2018  4 22 11 21 22.7688020  0  3                     
G 1  22312697.707       55678.629        2015.239          48.750  
G 3  20928353.096      -22167.581        -811.877          41.250  
G11  22974605.063       49854.296        2024.334          43.750  
> 2018  4 22 11 21 22.8688020  0  3                     
G 1  22314567.618       55880.197        2016.150          48.500  
G 3  20930169.165      -22248.675        -811.254          41.500  
G11  22976474.747       50056.713        2024.886          43.500  
> 2018  4 22 11 21 22.9688020  0  3                     
G 1  22316437.932       56081.745        2016.459          48.750  
G 3  20931984.361      -22329.751        -809.474          41.500  
G11  22978345.059       50259.115        2025.932          43.250  
> 2018  4 22 11 21 23.0688020  0  3                     
G 1  22318307.654       56283.349        2016.640          48.750  
G 3  20933800.531      -22410.795        -808.742          41.250  
G11  22980214.972       50461.594        2026.223          43.250  
> 2018  4 22 11 21 23.1688020  0  3                     
G 1  22320177.885       56485.021        2016.535          48.500  
G 3  20935616.410      -22491.769        -810.486          41.750  
G11  22982087.071       50664.088        2024.798          43.750  
> 2018  4 22 11 21 23.2688020  0  3                     
G 1  22322047.302       56686.698        2017.138          48.500  
G 3  20937433.265      -22572.707        -809.259          42.000  
G11  22983957.739       50866.641        2026.126          43.750  
> 2018  4 22 11 21 23.3688020  0  3                     
G 1  22323916.875       56888.458        2017.592          48.750  
G 3  20939249.686      -22653.597        -808.714          41.500  
G11  22985827.735       51069.257        2026.681          43.500  
> 2018  4 22 11 21 23.4688020  0  3                     
G 1  22325787.480       57090.215        2017.618          48.750  
G 3  20941066.845      -22734.442        -808.674          41.500  
G11  22987698.145       51271.876        2026.814          43.500  
> 2018  4 22 11 21 23.5688020  0  3                     
G 1  22327657.150       57291.989        2018.615          49.000  
G 3  20942881.533      -22815.254        -807.523          40.750  
G11  22989567.461       51474.512        2026.633          43.500  
> 2018  4 22 11 21 23.6688020  0  3                     
G 1  22329527.080       57493.790        2018.026          49.000  
G 3  20944697.305      -22896.061        -808.447          40.750  
G11  22991437.466       51677.172        2026.324          43.000  
> 2018  4 22 11 21 23.7688020  0  3                     
G 1  22331396.853       57695.596        2017.627          48.750  
G 3  20946511.855      -22976.868        -808.252          40.750  
G11  22993308.142       51879.839        2026.374          43.250  
> 2018  4 22 11 21 23.8688020  0  3                     
G 1  22333267.047       57897.400        2018.493          48.750  
G 3  20948328.106      -23057.644        -808.194          40.250  
G11  22995177.389       52082.501        2027.662          43.250  
> 2018  4 22 11 21 23.9688020  0  3                     
G 1  22335137.348       58099.246        2018.774          48.750  
G 3  20950144.607      -23138.402        -809.177          40.750  
G11  22997046.407       52285.182        2026.648          43.250  
> 2018  4 22 11 21 24.0688020  0  3                     
G 1  22337007.105       58301.118        2019.206          48.750  
G 3  20951960.707      -23219.101        -806.194          40.750  
G11  22998915.369       52487.878        2008.952          43.000  
> 2018  4 22 11 21 24.1688020  0  3                     
G 1  22338877.752       58503.022        2019.101          48.750  
G 3  20953776.450      -23299.770        -807.009          40.750  
G11  23000785.682       52690.664        2018.865          43.000  
> 2018  4 22 11 21 24.2688020  0  3                     
G 1  22340747.007       58704.902        2019.321          48.750  
G 3  20955592.880      -23380.460        -806.713          41.250  
G11  23002656.202       52893.431        2028.097          43.000  
> 2018  4 22 11 21 24.3688020  0  3                     
G 1  22342616.677       58906.793        2019.240          48.750  
G 3  20957409.748      -23461.138        -807.176          41.250  
G11  23004526.350       53096.176        2028.624          43.250  
> 2018  4 22 11 21 24.4688020  0  3                     
G 1  22344487.361       59108.649        2018.363          48.750  
G 3  20959226.872      -23541.845        -807.926          41.250  
G11  23006396.490       53298.904        2028.172          43.250  
> 2018  4 22 11 21 24.5688020  0  3                     
G 1  22346357.383       59310.473        2018.232          49.000  
G 3  20961042.556      -23622.582        -807.797          41.500  
G11  23008266.482       53501.566        2026.750          43.250  
> 2018  4 22 11 21 24.6688020  0  3                     
G 1  22348227.002       59512.285        2018.418          49.000  
G 3  20962858.732      -23703.298        -807.942          41.250  
G11  23010138.130       53704.242        2026.180          43.250  
> 2018  4 22 11 21 24.7688020  0  3                     
G 1  22350096.610       59714.072        2017.775          48.750  
G 3  20964674.364      -23784.059        -807.207          41.500  
G11  23012007.483       53906.883        2026.661          43.500  
> 2018  4 22 11 21 24.8688020  0  3                     
G 1  22351966.267       59915.820        2017.148          48.750  
G 3  20966489.785      -23864.852        -808.097          41.250  
G11  23013877.530       54109.488        2026.187          43.500  
> 2018  4 22 11 21 24.9688020  0  3                     
G 1  22353836.459       60117.558        2017.491          49.000  
G 3  20968305.895      -23945.646        -807.584          41.250  
G11  23015747.229       54312.070        2025.804          43.500  
> 2018  4 22 11 21 25.0688020  0  3                     
G 1  22355706.835       60319.302        2017.970          49.000  
G 3  20970122.636      -24026.438        -807.503          40.750  
G11  23017616.560       54514.668        2026.170          43.000  
> 2018  4 22 11 21 25.1688020  0  3                     
G 1  22357576.835       60521.030        2017.010          48.750  
G 3  20971940.534      -24107.230        -808.762          41.000  
G11  23019487.521       54717.263        2025.566          43.250  
> 2018  4 22 11 21 25.2688020  0  3                     
G 1  22359446.667       60722.692        2015.674          48.750  
G 3  20973756.685      -24188.076        -808.955          41.250  
G11  23021357.210       54919.781        2025.238          43.000  
> 2018  4 22 11 21 25.3688020  0  3                     
G 1  22361317.132       60924.330        2016.460          49.000  
G 3  20975571.064      -24268.954        -808.227          40.500  
G11  23023226.984       55122.267        2025.941          43.250  
> 2018  4 22 11 21 25.4688020  0  3                     
G 1  22363187.857       61125.949        2016.929          49.000  
G 3  20977387.293      -24349.839        -809.588          40.500  
G11  23025097.431       55324.744        2025.543          43.000  
> 2018  4 22 11 21 25.5688020  0  3                     
G 1  22365057.636       61327.536        2015.989          49.000  
G 3  20979203.391      -24430.761        -810.025          40.500  
G11  23026967.984       55527.190        2023.678          43.000  
> 2018  4 22 11 21 25.6688020  0  3                     
G 1  22366927.253       61529.141        2016.170          49.000  
G 3  20981019.141      -24511.632        -807.889          40.750  
G11  23028838.498       55729.635        2024.524          43.500  
> 2018  4 22 11 21 25.7688020  0  3                     
G 1  22368797.701       61730.652        2014.691          49.000  
G 3  20982834.431      -24592.602        -809.724          40.250  
G11  23030708.370       55932.014        2022.944          43.000  
> 2018  4 22 11 21 25.8688020  0  3                     
G 1  22370666.713       61932.133        2015.045          48.750  
G 3  20984649.732      -24673.612        -810.561          39.750  
G11  23032578.179       56134.339        2024.180          42.750  
> 2018  4 22 11 21 25.9688020  0  3                     
G 1  22372536.348       62133.612        2014.162          49.000  
G 3  20986466.047      -24754.597        -809.116          40.000  
G11  23034447.778       56336.679        2022.932          43.250  
> 2018  4 22 11 21 26.0688020  0  3                     
G 1  22374406.136       62335.199        2016.936          48.750  
G 3  20988283.096      -24835.483        -807.436          40.250  
G11  23036318.734       56539.092        2024.943          42.750  
> 2018  4 22 11 21 26.1688020  0  3                     
G 1  22376275.580       62536.838        2016.540          48.750  
G 3  20990098.492      -24916.313        -808.445          40.000  
G11  23038189.294       56741.621        2026.083          43.000  
> 2018  4 22 11 21 26.2688020  0  3                     
G 1  22378145.447       62738.580        2018.209          49.000  
G 3  20991912.586      -24997.025        -806.596          39.750  
G11  23040059.900       56944.197        2026.181          42.750  
> 2018  4 22 11 21 26.3688020  0  3                     
G 1  22380015.561       62940.390        2018.476          49.000  
G 3  20993729.568      -25077.665        -805.968          40.250  
G11  23041928.439       57146.872        2026.534          43.250  
> 2018  4 22 11 21 26.4688020  0  3                     
G 1  22381885.527       63142.218        2018.478          49.000  
G 3  20995544.689      -25158.298        -806.401          40.500  
G11  23043798.071       57349.540        2026.189          42.750  
> 2018  4 22 11 21 26.5688020  0  3                     
G 1  22383755.798       63343.986        2016.994          49.000  
G 3  20997359.851      -25238.965        -806.756          39.750  
G11  23045668.621       57552.175        2026.026          43.250  
> 2018  4 22 11 21 26.6688020  0  3                     
G 1  22385625.836       63545.730        2017.439          49.000  
G 3  20999176.171      -25319.665        -806.909          40.250  
G11  23047539.204       57754.759        2026.099          43.000  
> 2018  4 22 11 21 26.7688020  0  3                     
G 1  22387495.822       63747.427        2016.487          49.000  
G 3  21000992.769      -25400.384        -808.251          40.000  
G11  23049408.782       57957.316        2024.866          43.250  
> 2018  4 22 11 21 26.8688020  0  3                     
G 1  22389365.388       63949.115        2016.528          49.000  
G 3  21002810.367      -25481.121        -808.410          40.000  
G11  23051278.709       58159.847        2025.087          43.000  
> 2018  4 22 11 21 26.9688020  0  3                     
G 1  22391235.352       64150.792        2016.672          49.000  
G 3  21004627.253      -25561.868        -807.362          40.000  
G11  23053148.780       58362.377        2025.113          43.000  
> 2018  4 22 11 21 27.0688020  0  3                     
G 1  22393104.966       64352.438        2017.256          48.750  
G 3  21006444.795      -25642.641        -807.768          39.500  
G11  23055018.995       58564.877        2025.020          43.000  
> 2018  4 22 11 21 27.1688020  0  3                     
G 1  22394975.493       64554.134        2017.327          49.000  
G 3  21008261.883      -25723.363        -806.952          40.250  
G11  23056889.258       58767.414        2026.411          43.500  
> 2018  4 22 11 21 27.2688020  0  3                     
G 1  22396845.464       64755.802        2016.806          49.000  
G 3  21010076.767      -25804.076        -807.214          40.500  
G11  23058760.121       58969.945        2025.300          43.500  
> 2018  4 22 11 21 27.3688020  0  3                     
G 1  22398716.003       64957.482        2016.778          49.000  
G 3  21011891.886      -25884.784        -807.447          40.000  
G11  23060630.048       59172.473        2026.114          43.250  
> 2018  4 22 11 21 27.4688020  0  3                     
G 1  22400586.012       65159.181        2017.391          49.000  
G 3  21013708.941      -25965.496        -806.392          40.250  
G11  23062500.635       59375.020        2025.904          43.000  
> 2018  4 22 11 21 27.5688020  0  3                     
G 1  22402455.685       65360.879        2016.470          49.000  
G 3  21015524.025      -26046.175        -806.739          39.750  
G11  23064371.736       59577.557        2025.089          43.250  
> 2018  4 22 11 21 27.6688020  0  3                     
G 1  22404325.698       65562.542        2016.596          48.750  
G 3  21017339.190      -26126.904        -807.211          40.250  
G11  23066240.993       59780.088        2025.537          43.250  
> 2018  4 22 11 21 27.7688020  0  3                     
G 1  22406194.886       65764.130        2016.008          48.500  
G 3  21019155.239      -26207.689        -808.977          40.250  
G11  23068111.094       59982.512        2023.849          43.000  
> 2018  4 22 11 21 27.8688020  0  3                     
G 1  22408064.680       65965.699        2015.604          48.750  
G 3  21020973.496      -26288.486        -808.712          40.000  
G11  23069981.420       60184.925        2024.732          43.250  
> 2018  4 22 11 21 27.9688020  0  3                     
G 1  22409934.316       66167.326        2016.537          48.500  
G 3  21022789.951      -26369.228        -808.489          40.000  
G11  23071850.303       60387.397        2025.605          43.250  
> 2018  4 22 11 21 28.0688020  0  3                     
G 1  22411804.081       66369.035        2017.579          49.000  
G 3  21024605.043      -26449.875        -806.131          39.750  
G11  23073720.582       60589.956        2024.989          43.250  
