     3.02           OBSERVATION DATA    M: Mixed            RINEX VERSION / TYPE
GNSS-SDRLIB v1.1                        20180429 101715 UTC PGM / RUN BY / DATE 
                                                            MARKER NAME         
                                                            MARKER NUMBER       
                                                            MARKER TYPE         
                                                            OBSERVER / AGENCY   
GNSS-SDRLIB         GNSS-SDRLIB         1.1                 REC # / TYPE / VERS 
                                                            ANT # / TYPE        
        0.0000        0.0000        0.0000                  APPROX POSITION XYZ 
        0.0000        0.0000        0.0000                  ANTENNA: DELTA H/E/N
G    4 C1C L1C D1C S1C                                      SYS / # / OBS TYPES 
R    4 C1C L1C D1C S1C                                      SYS / # / OBS TYPES 
E    4 C1C L1C D1C S1C                                      SYS / # / OBS TYPES 
J    4 C1C L1C D1C S1C                                      SYS / # / OBS TYPES 
S    4 C1C L1C D1C S1C                                      SYS / # / OBS TYPES 
C    4 C1C L1C D1C S1C                                      SYS / # / OBS TYPES 
  1970     1     1     0     0    0.0000000     GPS         TIME OF FIRST OBS   
  1970     1     1     0     0    0.0000000     GPS         TIME OF LAST OBS    
G                                                           SYS / PHASE SHIFT   
R                                                           SYS / PHASE SHIFT   
E                                                           SYS / PHASE SHIFT   
J                                                           SYS / PHASE SHIFT   
S                                                           SYS / PHASE SHIFT   
C                                                           SYS / PHASE SHIFT   
  0                                                         GLONASS SLOT / FRQ #
 C1C    0.000 C1P    0.000 C2C    0.000 C2P    0.000        GLONASS COD/PHS/BIS 
                                                            END OF HEADER       
> 2018  4 22 11 21  6.0688020  0  1                     
G28  20625059.286        3265.449         352.535          48.500  
> 2018  4 22 11 21  6.1688020  0  1                     
G28  20626915.722        3300.676         353.090          48.000  
> 2018  4 22 11 21  6.0688020  0  2                     
G17  21059048.120      -23035.503       -2314.746          51.750  
G28  20625059.286        3265.449         352.535          48.000  
> 2018  4 22 11 21  6.1688020  0  2                     
G17  21060853.674      -23275.055       -2323.825          51.750  
G28  20626915.722        3300.676         353.090          48.000  
> 2018  4 22 11 21  6.0688020  0  3                     
G 3  21349491.489       -8751.939        -794.281          42.750  
G17  21059048.120      -23043.221       -2324.049          51.750  
G28  20625059.286        3265.449         352.535          48.000  
> 2018  4 22 11 21  6.1688020  0  3                     
G 3  21351325.576       -8835.492        -844.903          42.500  
G17  21060853.674      -23275.055       -2323.825          51.750  
G28  20626915.722        3300.676         353.090          48.000  
> 2018  4 22 11 21  6.0688020  0  4                     
G 1  22724837.717       22077.246        1994.421          48.750  
G 3  21349491.489       -8752.169        -830.684          42.500  
G17  21059048.120      -23043.221       -2324.049          51.750  
G28  20625059.286        3265.449         352.535          48.000  
> 2018  4 22 11 21  6.1688020  0  4                     
G 1  22726725.758       22277.893        2008.820          49.000  
G 3  21351325.576       -8835.313        -830.799          42.500  
G17  21060853.674      -23275.055       -2323.825          51.750  
G28  20626915.722        3300.676         353.090          48.000  
> 2018  4 22 11 21  6.0688020  0  5                     
G 1  22724837.717       22077.334        2004.250          49.000  
G 3  21349491.489       -8752.169        -830.684          42.500  
G17  21059048.120      -23043.221       -2324.049          51.750  
G22  22900473.534        7691.043         785.711          46.250  
G28  20625059.286        3265.449         352.535          48.000  
> 2018  4 22 11 21  6.1688020  0  5                     
G 1  22726725.758       22277.789        2004.206          49.000  
G 3  21351325.576       -8835.313        -830.799          42.500  
G17  21060853.674      -23275.055       -2323.825          51.750  
G22  22902337.542        7771.232         799.003          46.500  
G28  20626915.722        3300.676         353.090          48.000  
> 2018  4 22 11 21  6.0688020  0  6                     
G 1  22724837.717       22077.334        2004.250          49.000  
G 3  21349491.489       -8752.169        -830.684          42.500  
G11  23386715.917       20497.872        2029.323          44.250  
G17  21059048.120      -23043.221       -2324.049          51.750  
G22  22900473.534        7691.224         800.926          46.500  
G28  20625059.286        3265.449         352.535          48.000  
> 2018  4 22 11 21  6.1688020  0  6                     
G 1  22726725.758       22277.789        2004.206          49.000  
G 3  21351325.576       -8835.313        -830.799          42.500  
G11  23388604.474       20689.550        2012.370          44.500  
G17  21060853.674      -23275.055       -2323.825          51.750  
G22  22902337.542        7771.288         801.391          46.500  
G28  20626915.722        3300.676         353.090          48.000  
> 2018  4 22 11 21  6.2688020  0  6                     
G 1  22728595.347       22478.286        2005.248          49.000  
G 3  21353142.381       -8918.404        -830.846          42.500  
G11  23390475.389       20891.093        2014.182          44.250  
G17  21062641.665      -23507.344       -2322.585          51.750  
G22  22904184.876        7851.396         801.434          46.500  
G28  20628755.276        3335.978         353.018          48.250  
> 2018  4 22 11 21  6.3688020  0  6                     
G 1  22730465.351       22678.887        2006.155          48.750  
G 3  21354957.168       -9001.365        -830.133          42.750  
G11  23392345.389       21092.595        2015.187          44.250  
G17  21064429.052      -23739.518       -2322.530          51.750  
G22  22906032.118        7931.626         802.140          46.500  
G28  20630591.203        3371.382         354.289          48.250  
> 2018  4 22 11 21  6.4688020  0  6                     
G 1  22732335.777       22879.541        2007.387          49.000  
G 3  21356772.446       -9084.271        -828.075          42.500  
G11  23394215.073       21294.142        2016.016          44.250  
G17  21066216.659      -23971.662       -2320.948          51.500  
G22  22907879.146        8011.887         803.287          46.250  
G28  20632430.246        3406.836         354.426          48.500  
> 2018  4 22 11 21  6.5688020  0  6                     
G 1  22734205.539       23080.235        2006.998          49.000  
G 3  21358589.698       -9167.139        -828.586          42.750  
G11  23396084.324       21495.734        2015.718          44.250  
G17  21068004.712      -24203.747       -2320.750          51.750  
G22  22909725.181        8092.211         803.118          46.250  
G28  20634269.766        3442.340         355.526          48.250  
> 2018  4 22 11 21  6.6688020  0  6                     
G 1  22736075.307       23280.953        2008.092          49.000  
G 3  21360405.290       -9249.966        -828.284          42.250  
G11  23397955.295       21697.375        2017.198          44.250  
G17  21069792.201      -24435.804       -2320.367          51.750  
G22  22911571.953        8172.564         804.247          46.500  
G28  20636106.898        3477.879         356.043          48.250  
> 2018  4 22 11 21  6.7688020  0  6                     
G 1  22737945.568       23481.787        2008.752          49.000  
G 3  21362221.059       -9332.669        -825.874          42.500  
G11  23399825.569       21899.096        2017.705          44.250  
G17  21071579.722      -24667.750       -2319.374          51.500  
G22  22913419.709        8253.029         805.768          46.500  
G28  20637946.724        3513.525         356.694          48.500  
> 2018  4 22 11 21  6.8688020  0  6                     
G 1  22739815.321       23682.659        2008.243          49.000  
G 3  21364037.054       -9415.354        -826.399          42.500  
G11  23401695.407       22100.871        2017.244          44.500  
G17  21073366.750      -24899.661       -2319.283          51.750  
G22  22915266.688        8333.542         805.831          46.750  
G28  20639784.220        3549.208         356.827          48.250  
> 2018  4 22 11 21  6.9688020  0  6                     
G 1  22741684.552       23883.584        2009.628          49.000  
G 3  21365851.519       -9497.947        -825.920          42.750  
G11  23403565.722       22302.694        2018.479          44.000  
G17  21075154.419      -25131.513       -2318.367          51.500  
G22  22917113.397        8414.111         805.646          46.500  
G28  20641621.682        3584.950         357.888          48.250  
> 2018  4 22 11 21  7.0688020  0  6                     
G 1  22743554.252       24084.519        2009.253          48.750  
G 3  21367666.932       -9580.582        -826.017          42.250  
G11  23405436.431       22504.527        2018.422          44.000  
G17  21076941.919      -25363.359       -2318.377          51.750  
G22  22918960.914        8494.695         806.587          46.250  
G28  20643461.160        3620.716         358.108          48.250  
> 2018  4 22 11 21  7.1688020  0  6                     
G 1  22745423.805       24285.477        2009.031          49.000  
G 3  21369483.965       -9663.136        -825.670          42.000  
G11  23407306.061       22706.389        2019.134          44.000  
G17  21078729.648      -25595.188       -2319.002          51.750  
G22  22920808.327        8575.286         806.118          46.250  
G28  20645298.527        3656.507         357.853          48.250  
> 2018  4 22 11 21  7.2688020  0  6                     
G 1  22747293.959       24486.400        2008.838          49.000  
G 3  21371300.059       -9745.722        -825.869          42.000  
G11  23409176.075       22908.201        2017.668          44.000  
G17  21080517.317      -25827.035       -2318.177          51.750  
G22  22922655.638        8655.871         804.978          46.500  
G28  20647137.025        3692.267         357.234          48.250  
> 2018  4 22 11 21  7.3688020  0  6                     
G 1  22749163.472       24687.299        2008.446          49.250  
G 3  21373115.387       -9828.337        -826.749          42.500  
G11  23411046.493       23110.000        2017.078          44.000  
G17  21082304.199      -26058.913       -2319.299          51.750  
G22  22924502.250        8736.430         806.444          46.250  
G28  20648976.502        3728.008         357.427          48.250  
> 2018  4 22 11 21  7.4688020  0  6                     
G 1  22751033.598       24888.207        2009.954          49.000  
G 3  21374930.964       -9910.944        -825.923          42.250  
G11  23412916.614       23311.822        2019.298          44.000  
G17  21084091.581      -26290.768       -2318.090          51.750  
G22  22926347.245        8816.989         806.157          46.250  
G28  20650812.440        3763.774         358.455          48.000  
> 2018  4 22 11 21  7.5688020  0  6                     
G 1  22752903.710       25089.169        2009.506          49.000  
G 3  21376746.964       -9993.487        -825.668          42.500  
G11  23414785.590       23513.674        2018.260          44.250  
G17  21085879.154      -26522.596       -2318.115          51.750  
G22  22928194.518        8897.610         806.343          46.250  
G28  20652651.500        3799.568         357.742          48.250  
> 2018  4 22 11 21  7.6688020  0  6                     
G 1  22754773.836       25290.112        2009.257          49.000  
G 3  21378562.434      -10076.049        -826.501          42.750  
G11  23416655.695       23715.497        2019.009          44.250  
G17  21087666.338      -26754.435       -2318.766          51.750  
G22  22930041.935        8978.214         805.677          46.500  
G28  20654490.537        3835.355         358.291          48.000  
> 2018  4 22 11 21  7.7688020  0  6                     
G 1  22756644.489       25491.013        2009.766          48.750  
G 3  21380378.848      -10158.638        -825.671          42.500  
G11  23418525.431       23917.300        2018.076          44.250  
G17  21089453.709      -26986.303       -2318.947          51.750  
G22  22931889.730        9058.794         806.105          46.250  
G28  20656327.505        3871.124         357.647          48.250  
> 2018  4 22 11 21  7.8688020  0  6                     
G 1  22758514.291       25691.896        2008.582          49.000  
G 3  21382194.795      -10241.250        -827.286          42.750  
G11  23420395.261       24119.082        2017.138          44.000  
G17  21091240.639      -27218.185       -2319.125          51.750  
G22  22933736.487        9139.353         805.481          46.250  
G28  20658166.677        3906.861         357.229          48.250  
> 2018  4 22 11 21  7.9688020  0  6                     
G 1  22760384.729       25892.774        2009.064          48.750  
G 3  21384010.584      -10323.839        -825.326          43.000  
G11  23422266.769       24320.849        2017.361          44.000  
G17  21093028.493      -27450.081       -2318.994          51.750  
G22  22935583.692        9219.903         805.728          46.750  
G28  20660005.084        3942.617         357.861          48.250  
> 2018  4 22 11 21  8.0688020  0  6                     
G 1  22762254.328       26093.635        2008.268          49.000  
G 3  21385826.151      -10406.433        -826.381          42.500  
G11  23424136.658       24522.638        2017.626          44.250  
G17  21094815.919      -27681.981       -2319.704          52.000  
G22  22937430.261        9300.458         805.139          46.500  
G28  20661843.785        3978.352         357.527          48.250  
> 2018  4 22 11 21  8.1688020  0  6                     
G 1  22764123.761       26294.491        2009.110          49.000  
G 3  21387641.502      -10489.049        -825.773          42.750  
G11  23426006.331       24724.379        2017.202          44.000  
G17  21096603.131      -27913.893       -2318.799          52.000  
G22  22939277.619        9380.994         806.147          46.250  
G28  20663684.154        4014.081         358.254          48.000  
> 2018  4 22 11 21  8.2688020  0  6                     
G 1  22765993.019       26495.366        2009.191          49.000  
G 3  21389457.453      -10571.648        -824.745          42.750  
G11  23427876.869       24926.141        2018.021          44.000  
G17  21098390.725      -28145.796       -2318.542          51.750  
G22  22941125.296        9461.557         806.488          46.500  
G28  20665520.141        4049.828         358.233          48.000  
> 2018  4 22 11 21  8.3688020  0  6                     
G 1  22767862.625       26696.285        2009.419          49.000  
G 3  21391273.093      -10654.169        -824.748          43.000  
G11  23429745.806       25127.970        2018.597          44.500  
G17  21100178.240      -28377.645       -2318.631          51.750  
G22  22942972.903        9542.180         806.581          46.500  
G28  20667358.125        4085.632         358.941          48.250  
> 2018  4 22 11 21  8.4688020  0  6                     
G 1  22769732.031       26897.162        2009.038          49.000  
G 3  21393089.347      -10736.755        -825.902          42.750  
G11  23431615.363       25329.745        2017.956          44.250  
G17  21101965.980      -28609.545       -2318.691          51.750  
G22  22944819.296        9622.754         806.119          46.250  
G28  20669197.286        4121.396         358.400          48.250  
> 2018  4 22 11 21  8.5688020  0  6                     
G 1  22771602.121       27098.075        2009.935          49.250  
G 3  21394905.162      -10819.270        -824.674          42.500  
G11  23433485.550       25531.551        2018.374          44.000  
G17  21103753.322      -28841.394       -2318.479          51.750  
G22  22946666.322        9703.359         806.456          46.000  
G28  20671034.273        4157.197         358.432          48.250  
> 2018  4 22 11 21  8.6688020  0  6                     
G 1  22773471.214       27298.984        2009.155          49.000  
G 3  21396722.195      -10901.788        -825.168          42.000  
G11  23435356.295       25733.370        2018.627          44.500  
G17  21105541.339      -29073.234       -2318.703          51.750  
G22  22948511.795        9784.000         806.722          46.250  
G28  20672874.524        4193.013         357.466          48.250  
> 2018  4 22 11 21  8.7688020  0  6                     
G 1  22775340.568       27499.857        2008.619          49.000  
G 3  21398537.110      -10984.377        -826.367          42.000  
G11  23437227.526       25935.112        2017.118          44.500  
G17  21107328.476      -29305.144       -2319.668          51.750  
G22  22950358.616        9864.560         805.308          46.250  
G28  20674712.409        4228.769         357.393          48.250  
> 2018  4 22 11 21  8.8688020  0  6                     
G 1  22777210.751       27700.668        2008.618          49.000  
G 3  21400352.406      -11067.001        -825.429          42.000  
G11  23439096.916       26136.833        2017.672          44.500  
G17  21109115.937      -29537.081       -2319.732          52.000  
G22  22952206.131        9945.094         805.297          46.250  
G28  20676550.148        4264.494         356.608          48.500  
> 2018  4 22 11 21  8.9688020  0  6                     
G 1  22779080.605       27901.501        2008.170          49.000  
G 3  21402167.922      -11149.619        -827.045          42.500  
G11  23440967.114       26338.565        2017.250          44.250  
G17  21110903.286      -29769.029       -2319.372          51.750  
G22  22954053.420       10025.629         805.314          46.500  
G28  20678389.787        4300.220         357.131          48.000  
> 2018  4 22 11 21  9.0688020  0  6                     
G 1  22780950.766       28102.348        2008.326          49.000  
G 3  21403983.301      -11232.143        -824.652          42.500  
G11  23442836.542       26540.309        2016.639          44.250  
G17  21112690.517      -30000.935       -2319.269          51.750  
G22  22955900.423       10106.217         805.443          46.000  
G28  20680227.139        4335.999         357.962          47.750  
> 2018  4 22 11 21  9.1688020  0  6                     
G 1  22782820.961       28303.202        2008.496          48.750  
G 3  21405799.576      -11314.724        -825.888          43.000  
G11  23444705.680       26742.056        2016.726          44.250  
G17  21114478.440      -30232.841       -2319.126          51.750  
G22  22957746.496       10186.780         805.992          46.250  
G28  20682064.884        4371.763         357.763          48.000  
> 2018  4 22 11 21  9.2688020  0  6                     
G 1  22784690.462       28504.040        2008.200          48.750  
G 3  21407616.032      -11397.285        -826.566          42.750  
G11  23446576.070       26943.807        2017.121          44.250  
G17  21116265.737      -30464.761       -2319.427          51.750  
G22  22959592.654       10267.350         805.149          46.250  
G28  20683904.972        4407.523         357.077          48.000  
> 2018  4 22 11 21  9.3688020  0  6                     
G 1  22786559.895       28704.857        2008.815          49.000  
G 3  21409431.590      -11479.862        -825.797          42.250  
G11  23448445.845       27145.507        2016.818          44.500  
G17  21118053.137      -30696.716       -2319.609          51.750  
G22  22961440.037       10347.891         805.952          46.250  
G28  20685741.539        4443.263         357.331          48.000  
> 2018  4 22 11 21  9.4688020  0  6                     
G 1  22788429.473       28905.684        2008.111          49.250  
G 3  21411247.306      -11562.404        -825.309          41.750  
G11  23450316.175       27347.217        2017.619          44.250  
G17  21119841.148      -30928.633       -2318.882          51.750  
G22  22963288.390       10428.452         805.614          46.500  
G28  20687580.651        4479.021         358.320          48.000  
> 2018  4 22 11 21  9.5688020  0  6                     
G 1  22790299.252       29106.465        2008.370          49.000  
G 3  21413063.709      -11645.048        -825.992          41.000  
G11  23452186.052       27548.887        2017.120          44.000  
G17  21121628.414      -31160.627       -2319.830          52.000  
G22  22965135.867       10508.975         805.244          46.500  
G28  20689418.415        4514.728         357.520          48.000  
> 2018  4 22 11 21  9.6688020  0  6                     
G 1  22792169.118       29307.145        2006.518          49.000  
G 3  21414880.088      -11727.772        -827.830          41.750  
G11  23454056.405       27750.477        2015.442          44.250  
G17  21123416.326      -31392.692       -2321.203          51.750  
G22  22966982.604       10589.405         803.067          46.500  
G28  20691255.715        4550.354         355.635          47.750  
> 2018  4 22 11 21  9.7688020  0  6                     
G 1  22794038.257       29507.797        2006.222          49.000  
G 3  21416695.327      -11810.512        -828.023          42.750  
G11  23455926.146       27952.010        2014.813          44.500  
G17  21125203.477      -31624.812       -2321.570          52.000  
G22  22968829.590       10669.799         803.584          46.500  
G28  20693095.043        4585.943         355.466          48.000  
> 2018  4 22 11 21  9.8688020  0  6                     
G 1  22795908.049       29708.419        2006.500          49.250  
G 3  21418511.621      -11893.234        -828.051          43.250  
G11  23457795.852       28153.541        2015.344          44.750  
G17  21126991.015      -31856.944       -2321.931          51.750  
G22  22970677.158       10750.160         803.894          46.250  
G28  20694933.121        4621.515         355.294          48.000  
> 2018  4 22 11 21  9.9688020  0  6                     
G 1  22797778.080       29908.993        2005.841          48.750  
G 3  21420328.734      -11976.008        -828.266          42.500  
G11  23459666.734       28354.998        2014.778          44.000  
G17  21128778.484      -32089.132       -2322.124          51.750  
G22  22972523.732       10830.502         803.474          46.000  
G28  20696770.749        4657.035         354.953          47.750  
> 2018  4 22 11 21 10.0688020  0  6                     
G 1  22799648.114       30109.513        2004.787          49.000  
G 3  21422144.440      -12058.852        -829.287          42.500  
G11  23461537.002       28556.406        2014.040          44.500  
G17  21130565.370      -32321.348       -2322.708          52.000  
G22  22974370.152       10910.777         803.145          46.500  
G28  20698610.699        4692.517         354.367          48.000  
> 2018  4 22 11 21 10.1688020  0  6                     
G 1  22801518.243       30309.999        2004.753          49.000  
G 3  21423959.760      -12141.738        -829.416          42.000  
G11  23463406.256       28757.788        2013.867          44.000  
G17  21132353.266      -32553.631       -2323.036          51.750  
G22  22976217.261       10991.021         802.816          46.250  
G28  20700447.838        4727.955         354.380          48.000  
> 2018  4 22 11 21 10.2688020  0  6                     
G 1  22803387.867       30510.412        2003.561          49.000  
G 3  21425774.662      -12224.683        -829.090          42.500  
G11  23465276.189       28959.085        2012.737          44.000  
G17  21134140.540      -32785.969       -2324.403          51.750  
G22  22978064.165       11071.195         801.288          46.500  
G28  20702286.984        4763.333         353.020          48.250  
> 2018  4 22 11 21 10.3688020  0  6                     
G 1  22805257.881       30710.811        2004.075          49.000  
G 3  21427591.421      -12307.617        -828.379          43.000  
G11  23467145.975       29160.388        2013.726          44.250  
G17  21135927.763      -33018.321       -2323.154          52.000  
G22  22979911.313       11151.378         802.229          46.500  
G28  20704125.527        4798.698         354.375          48.250  
> 2018  4 22 11 21 10.4688020  0  6                     
G 1  22807127.428       30911.259        2004.367          49.000  
G 3  21429407.721      -12390.499        -828.321          43.500  
G11  23469015.456       29361.727        2014.225          44.250  
G17  21137715.357      -33250.627       -2323.391          51.750  
G22  22981757.130       11231.583         802.079          46.500  
G28  20705962.566        4834.123         354.089          48.000  
> 2018  4 22 11 21 10.5688020  0  6                     
G 1  22808996.938       31111.690        2004.339          49.250  
G 3  21431223.168      -12473.394        -829.130          43.000  
G11  23470884.350       29563.051        2013.258          44.250  
G17  21139502.612      -33482.953       -2323.055          52.000  
G22  22983603.163       11311.793         801.921          46.500  
G28  20707801.586        4869.526         354.041          48.000  
> 2018  4 22 11 21 10.6688020  0  6                     
G 1  22810866.733       31312.159        2005.032          49.000  
G 3  21433038.116      -12556.281        -827.225          41.000  
G11  23472754.999       29764.395        2014.650          44.250  
G17  21141290.887      -33715.244       -2322.976          52.000  
G22  22985450.019       11392.041         803.031          46.500  
G28  20709639.747        4904.957         355.158          48.000  
> 2018  4 22 11 21 10.7688020  0  6                     
G 1  22812736.350       31512.627        2004.543          49.250  
G 3  21434853.209      -12639.155        -829.420          42.000  
G11  23474624.769       29965.755        2013.223          44.250  
G17  21143077.853      -33947.535       -2323.099          51.750  
G22  22987296.834       11472.278         802.236          46.250  
G28  20711477.064        4940.409         354.329          48.250  
> 2018  4 22 11 21 10.8688020  0  6                     
G 1  22814606.246       31713.110        2005.432          49.250  
G 3  21436670.883      -12721.975        -828.161          43.750  
G11  23476494.814       30167.114        2013.254          44.250  
G17  21144865.212      -34179.795       -2322.811          52.000  
G22  22989144.350       11552.557         802.757          46.250  
G28  20713317.121        4975.868         354.437          48.000  
> 2018  4 22 11 21 10.9688020  0  6                     
G 1  22816476.121       31913.605        2004.453          49.250  
G 3  21438487.678      -12804.778        -828.018          42.750  
G11  23478365.540       30368.522        2013.912          44.250  
G17  21146652.742      -34412.031       -2322.672          51.750  
G22  22990991.549       11632.852         802.592          46.250  
G28  20715154.070        5011.373         355.305          48.000  
> 2018  4 22 11 21 11.0688020  0  6                     
G 1  22818346.128       32114.092        2004.908          49.250  
G 3  21440302.455      -12887.622        -828.597          42.500  
G11  23480234.025       30569.878        2013.195          44.000  
G17  21148439.447      -34644.303       -2322.856          52.000  
G22  22992836.531       11713.126         803.000          46.500  
G28  20716991.976        5046.841         354.447          48.000  
> 2018  4 22 11 21 11.1688020  0  6                     
G 1  22820215.763       32314.591        2005.203          49.250  
G 3  21442117.611      -12970.392        -826.292          42.250  
G11  23482102.662       30771.272        2013.712          43.750  
G17  21150226.823      -34876.547       -2322.492          52.000  
G22  22994683.566       11793.409         802.861          46.250  
G28  20718832.282        5082.338         354.520          47.750  
> 2018  4 22 11 21 11.2688020  0  6                     
G 1  22822084.904       32515.109        2005.409          49.000  
G 3  21443933.721      -13053.190        -827.374          42.000  
G11  23483972.855       30972.676        2014.805          44.000  
G17  21152013.802      -35108.776       -2322.548          51.750  
G22  22996530.955       11873.738         803.886          46.250  
G28  20720668.098        5117.862         355.370          48.000  
> 2018  4 22 11 21 11.3688020  0  6                     
G 1  22823954.443       32715.613        2005.415          49.000  
G 3  21445750.172      -13135.992        -828.495          42.750  
G11  23485841.604       31174.075        2014.016          44.000  
G17  21153801.523      -35341.022       -2322.371          51.750  
G22  22998378.451       11954.038         802.862          46.500  
G28  20722506.609        5153.372         354.681          48.000  
> 2018  4 22 11 21 11.4688020  0  6                     
G 1  22825824.422       32916.089        2004.852          49.000  
G 3  21447565.511      -13218.795        -828.892          42.250  
G11  23487711.390       31375.443        2013.313          43.750  
G17  21155588.896      -35573.289       -2322.703          51.750  
G22  23000226.089       12034.326         803.102          46.250  
G28  20724346.246        5188.856         354.881          47.750  
> 2018  4 22 11 21 11.5688020  0  6                     
G 1  22827694.870       33116.576        2005.069          48.750  
G 3  21449380.679      -13301.583        -828.421          42.750  
G11  23489581.809       31576.807        2014.029          43.750  
G17  21157376.164      -35805.544       -2322.191          51.750  
G22  23002072.243       12114.613         803.979          46.250  
G28  20726183.687        5224.369         355.649          48.000  
> 2018  4 22 11 21 11.6688020  0  6                     
G 1  22829563.984       33317.070        2005.538          49.000  
G 3  21451196.574      -13384.363        -827.883          42.500  
G11  23491451.118       31778.183        2014.384          44.000  
G17  21159163.835      -36037.788       -2322.033          52.000  
G22  23003919.122       12194.929         803.052          46.250  
G28  20728023.222        5259.866         355.354          47.750  
> 2018  4 22 11 21 11.7688020  0  6                     
G 1  22831433.225       33517.569        2005.246          49.000  
G 3  21453013.633      -13467.117        -827.717          42.750  
G11  23493321.411       31979.589        2014.564          44.000  
G17  21160951.120      -36270.033       -2322.265          52.000  
G22  23005766.076       12275.250         803.821          46.500  
G28  20729860.650        5295.397         355.500          48.000  
> 2018  4 22 11 21 11.8688020  0  6                     
G 1  22833302.938       33718.075        2005.514          49.250  
G 3  21454828.360      -13549.894        -827.064          42.250  
G11  23495191.288       32180.980        2014.884          44.250  
G17  21162738.815      -36502.259       -2321.953          52.000  
G22  23007613.237       12355.582         803.881          46.500  
G28  20731698.682        5330.950         356.278          48.000  
> 2018  4 22 11 21 11.9688020  0  6                     
G 1  22835172.701       33918.640        2005.855          49.000  
G 3  21456644.109      -13632.579        -826.307          43.000  
G11  23497061.039       32382.443        2015.273          44.250  
G17  21164526.236      -36734.429       -2321.271          52.000  
G22  23009459.850       12435.983         804.690          46.250  
G28  20733538.881        5366.543         356.347          48.000  
> 2018  4 22 11 21 12.0688020  0  6                     
G 1  22837042.752       34119.247        2007.154          49.000  
G 3  21458461.016      -13715.218        -825.870          42.500  
G11  23498931.736       32583.934        2016.590          44.250  
G17  21166313.591      -36966.570       -2320.870          52.250  
G22  23011306.852       12516.361         787.810          46.250  
G28  20735375.998        5402.188         357.899          48.250  
> 2018  4 22 11 21 12.1688020  0  6                     
G 1  22838912.687       34320.005        2007.890          49.250  
G 3  21460276.295      -13797.694        -825.232          42.500  
G11  23500801.955       32785.564        2016.827          44.250  
G17  21168101.594      -37198.539       -2319.608          52.250  
G22  23013152.811       12596.922         801.814          46.250  
G28  20737215.330        5437.980         358.789          48.250  
> 2018  4 22 11 21 12.2688020  0  6                     
G 1  22840782.900       34520.741        2007.539          49.250  
G 3  21462093.086      -13880.214        -825.505          42.500  
G11  23502672.485       32987.198        2015.772          44.250  
G17  21169888.794      -37430.544       -2320.542          52.000  
G22  23015000.276       12677.585         806.104          46.250  
G28  20739053.647        5473.771         357.604          48.000  
> 2018  4 22 11 21 12.3688020  0  6                     
G 1  22842653.495       34721.596        2009.567          49.000  
G 3  21463908.995      -13962.593        -822.989          42.500  
G11  23504542.754       33188.924        2017.085          44.000  
G17  21171676.390      -37662.436       -2318.571          52.000  
G22  23016846.488       12758.275         807.390          46.250  
G28  20740890.246        5509.650         360.159          48.250  
> 2018  4 22 11 21 12.4688020  0  6                     
G 1  22844522.597       34922.495        2008.688          49.000  
G 3  21465724.143      -14044.919        -821.982          42.750  
G11  23506412.455       33390.729        2018.932          43.750  
G17  21173463.589      -37894.258       -2318.211          52.000  
G22  23018694.584       12839.028         808.353          46.250  
G28  20742729.594        5545.628         360.086          48.000  
> 2018  4 22 11 21 12.5688020  0  6                     
G 1  22846391.910       35123.464        2009.403          49.000  
G 3  21467539.379      -14127.183        -822.190          42.500  
G11  23508281.830       33592.575        2018.889          44.000  
G17  21175251.078      -38126.036       -2318.005          52.000  
G22  23020541.843       12919.836         807.972          46.500  
G28  20744568.378        5581.641         360.451          47.750  
> 2018  4 22 11 21 12.6688020  0  6                     
G 1  22848261.600       35324.467        2010.849          49.000  
G 3  21469355.590      -14209.373        -821.580          42.250  
G11  23510151.189       33794.476        2019.613          44.000  
G17  21177038.890      -38357.760       -2316.981          52.000  
G22  23022389.458       13000.706         808.725          46.250  
G28  20746406.463        5617.702         360.410          48.000  
> 2018  4 22 11 21 12.7688020  0  6                     
G 1  22850131.179       35525.575        2011.358          49.250  
G 3  21471171.473      -14291.507        -821.000          42.250  
G11  23512021.304       33996.438        2019.524          44.000  
G17  21178826.797      -38589.389       -2315.885          52.000  
G22  23024235.976       13081.665         809.939          46.250  
G28  20748246.582        5653.871         362.128          47.750  
> 2018  4 22 11 21 12.8688020  0  6                     
G 1  22852001.653       35726.845        2013.523          48.500  
G 3  21472987.525      -14373.431        -817.760          42.250  
G11  23513890.287       34198.610        2022.946          43.750  
G17  21180614.393      -38820.851       -2313.756          51.750  
G22  23026082.881       13162.795         812.730          46.250  
G28  20750084.198        5690.222         364.522          47.750  
> 2018  4 22 11 21 12.9688020  0  6                     
G 1  22853872.011       35928.325        2015.401          49.000  
G 3  21474804.223      -14455.157        -816.333          42.500  
G11  23515761.257       34400.957        2024.291          43.750  
G17  21182401.237      -39052.116       -2312.442          51.750  
G22  23027929.584       13244.134         814.508          46.500  
G28  20751923.406        5726.743         365.688          47.750  
> 2018  4 22 11 21 13.0688020  0  6                     
G 1  22855742.018       36129.965        2016.838          49.250  
G 3  21476619.426      -14536.727        -814.783          42.000  
G11  23517631.726       34603.472        2025.705          44.000  
G17  21184188.691      -39283.215       -2310.059          52.000  
G22  23029776.521       13325.630         815.705          46.750  
G28  20753762.438        5763.468         367.838          48.000  
> 2018  4 22 11 21 13.1688020  0  6                     
G 1  22857611.759       36331.708        2017.915          49.250  
G 3  21478436.539      -14618.181        -814.064          42.250  
G11  23519501.765       34806.117        2026.452          44.000  
G17  21185975.941      -39514.198       -2309.783          52.000  
G22  23031623.899       13407.250         816.791          46.000  
G28  20755600.426        5800.299         369.069          48.000  
> 2018  4 22 11 21 13.2688020  0  6                     
G 1  22859481.937       36533.498        2018.268          49.250  
G 3  21480252.876      -14699.563        -813.182          42.750  
G11  23521372.149       35008.786        2026.580          43.750  
G17  21187763.466      -39745.140       -2309.579          52.000  
G22  23033471.657       13488.913         816.283          46.500  
G28  20757440.324        5837.169         368.731          48.000  
> 2018  4 22 11 21 13.3688020  0  6                     
G 1  22861351.491       36735.312        2017.519          49.250  
G 3  21482068.681      -14780.916        -814.053          42.500  
G11  23523242.361       35211.485        2025.634          44.000  
G17  21189551.271      -39976.046       -2309.609          52.000  
G22  23035318.402       13570.626         816.436          46.000  
G28  20759276.975        5874.080         368.105          47.750  
> 2018  4 22 11 21 13.4688020  0  6                     
G 1  22863221.063       36937.075        2016.641          49.000  
G 3  21483885.304      -14862.326        -814.664          42.500  
G11  23525111.296       35414.127        2024.895          44.000  
G17  21191338.387      -40207.021       -2310.712          51.750  
G22  23037164.885       13652.253         815.849          46.000  
G28  20761114.996        5910.933         367.142          47.750  
> 2018  4 22 11 21 13.5688020  0  6                     
G 1  22865091.650       37138.689        2015.684          49.000  
G 3  21485701.339      -14943.873        -815.227          42.250  
G11  23526981.872       35616.637        2025.485          44.000  
G17  21193126.039      -40438.124       -2311.206          52.000  
G22  23039010.928       13733.762         814.543          46.250  
G28  20762955.281        5947.659         366.889          48.000  
> 2018  4 22 11 21 13.6688020  0  6                     
G 1  22866961.655       37340.275        2015.942          49.000  
G 3  21487517.058      -15025.464        -816.011          42.250  
G11  23528852.321       35819.090        2024.185          44.250  
G17  21194913.963      -40669.275       -2311.829          52.000  
G22  23040858.005       13815.217         813.871          46.250  
G28  20764791.280        5984.342         367.063          47.750  
> 2018  4 22 11 21 13.7688020  0  6                     
G 1  22868831.151       37541.784        2015.063          48.750  
G 3  21489332.873      -15107.105        -816.804          42.500  
G11  23530721.953       36021.514        2024.641          43.750  
G17  21196701.936      -40900.480       -2312.117          52.000  
G22  23042704.472       13896.651         813.934          46.250  
G28  20766629.482        6020.961         365.559          48.000  
> 2018  4 22 11 21 13.8688020  0  6                     
G 1  22870701.197       37743.272        2014.845          49.000  
G 3  21491148.639      -15188.770        -816.539          43.000  
G11  23532592.308       36223.857        2023.930          44.000  
G17  21198489.787      -41131.729       -2312.500          52.000  
G22  23044552.116       13978.025         813.845          46.500  
G28  20768469.110        6057.557         366.121          48.000  
> 2018  4 22 11 21 13.9688020  0  6                     
G 1  22872571.225       37944.735        2014.724          49.000  
G 3  21492964.457      -15270.451        -817.376          42.250  
G11  23534462.785       36426.217        2024.185          44.250  
G17  21200276.973      -41362.980       -2312.587          52.000  
G22  23046399.747       14059.395         813.012          46.250  
G28  20770306.630        6094.140         365.830          48.250  
> 2018  4 22 11 21 14.0688020  0  6                     
G 1  22874440.669       38146.144        2013.535          49.250  
G 3  21494781.079      -15352.203        -817.533          43.000  
G11  23536333.137       36628.504        2022.779          44.000  
G17  21202065.022      -41594.304       -2313.472          52.000  
G22  23048246.735       14140.714         813.594          46.250  
G28  20772146.559        6130.669         365.417          48.000  
> 2018  4 22 11 21 14.1688020  0  6                     
G 1  22876310.510       38347.549        2014.086          49.000  
G 3  21496597.605      -15433.918        -817.824          42.500  
G11  23538202.262       36830.794        2023.514          43.750  
G17  21203852.614      -41825.611       -2313.120          52.000  
G22  23050092.832       14222.029         813.172          46.500  
G28  20773984.075        6167.193         365.948          48.000  
> 2018  4 22 11 21 14.2688020  0  6                     
G 1  22878180.378       38548.978        2014.226          49.250  
G 3  21498413.393      -15515.614        -816.633          42.250  
G11  23540071.817       37033.097        2022.670          43.750  
G17  21205640.146      -42056.916       -2313.457          52.000  
G22  23051940.698       14303.357         812.672          46.500  
G28  20775821.825        6203.748         364.977          48.000  
> 2018  4 22 11 21 14.3688020  0  6                     
G 1  22880050.087       38750.339        2013.611          49.000  
G 3  21500228.784      -15597.373        -817.880          42.250  
G11  23541942.110       37235.352        2022.637          43.750  
G17  21207427.839      -42288.266       -2313.932          52.250  
G22  23053787.520       14384.645         812.450          46.250  
G28  20777662.645        6240.242         364.671          48.000  
> 2018  4 22 11 21 14.4688020  0  6                     
G 1  22881919.981       38951.735        2013.949          49.250  
G 3  21502044.607      -15679.098        -817.808          42.500  
G11  23543811.477       37437.618        2022.425          44.000  
G17  21209215.439      -42519.601       -2313.818          52.000  
G22  23055635.625       14465.953         812.867          46.500  
G28  20779500.085        6276.768         364.893          48.000  
> 2018  4 22 11 21 14.5688020  0  6                     
G 1  22883789.524       39153.087        2013.673          49.250  
G 3  21503859.933      -15760.860        -817.462          42.250  
G11  23545681.344       37639.856        2022.281          44.000  
G17  21211003.198      -42750.973       -2314.120          52.000  
G22  23057483.242       14547.229         812.603          46.250  
G28  20781339.126        6313.255         364.678          47.750  
> 2018  4 22 11 21 14.6688020  0  6                     
G 1  22885659.911       39354.365        2013.582          49.250  
G 3  21505675.879      -15842.699        -818.627          42.500  
G11  23547551.643       37842.005        2022.844          43.750  
G17  21212790.290      -42982.427       -2314.690          52.000  
G22  23059329.547       14628.420         811.969          46.500  
G28  20783177.705        6349.671         364.334          47.750  
> 2018  4 22 11 21 14.7688020  0  6                     
G 1  22887529.429       39555.631        2012.665          49.000  
G 3  21507493.081      -15924.526        -819.378          42.250  
G11  23549423.690       38044.152        2021.010          44.000  
G17  21214577.709      -43213.868       -2314.753          52.000  
G22  23061175.941       14709.641         811.864          46.500  
G28  20785015.137        6386.097         363.742          47.750  
> 2018  4 22 11 21 14.8688020  0  6                     
G 1  22889399.928       39756.858        2012.042          49.000  
G 3  21509308.956      -16006.372        -819.237          42.500  
G11  23551293.711       38246.259        2020.311          44.000  
G17  21216365.350      -43445.353       -2315.139          52.000  
G22  23063023.712       14790.792         811.677          46.500  
G28  20786854.469        6422.474         364.290          47.750  
> 2018  4 22 11 21 14.9688020  0  6                     
G 1  22891270.302       39958.070        2012.901          49.250  
G 3  21511124.805      -16088.264        -818.559          42.250  
G11  23553164.227       38448.365        2022.812          44.000  
G17  21218152.995      -43676.853       -2314.459          52.000  
G22  23064870.138       14871.945         812.451          46.500  
G28  20788692.024        6458.853         365.084          47.750  
> 2018  4 22 11 21 15.0688020  0  6                     
G 1  22893139.988       40159.381        2012.999          49.000  
G 3  21512940.496      -16170.045        -818.256          42.250  
G11  23555033.976       38650.539        2021.700          43.750  
G17  21219940.485      -43908.266       -2314.247          52.000  
G22  23066717.482       14953.207         812.811          46.500  
G28  20790529.952        6495.315         364.890          47.750  
> 2018  4 22 11 21 15.1688020  0  6                     
G 1  22895009.733       40360.712        2013.452          49.250  
G 3  21514755.616      -16251.784        -817.662          42.250  
G11  23556904.074       38852.754        2022.110          44.250  
G17  21221727.646      -44139.652       -2314.055          52.000  
G22  23068565.063       15034.473         812.740          46.250  
G28  20792370.144        6531.806         365.317          47.750  
> 2018  4 22 11 21 15.2688020  0  6                     
G 1  22896880.364       40562.108        2014.534          49.250  
G 3  21516570.569      -16333.473        -816.420          42.250  
G11  23558774.646       39055.042        2022.452          44.000  
G17  21223515.012      -44370.961       -2312.604          51.750  
G22  23070412.459       15115.839         813.935          46.750  
G28  20794207.103        6568.386         365.515          47.750  
> 2018  4 22 11 21 15.3688020  0  6                     
G 1  22898750.285       40763.576        2015.697          49.250  
G 3  21518388.343      -16415.069        -815.356          42.250  
G11  23560644.022       39257.364        2023.526          44.000  
G17  21225302.966      -44602.224       -2312.716          52.000  
G22  23072259.020       15197.240         814.120          46.000  
G28  20796045.999        6605.016         366.478          47.500  
> 2018  4 22 11 21 15.4688020  0  6                     
G 1  22900620.113       40965.076        2015.574          49.250  
G 3  21520205.165      -16496.634        -815.645          42.250  
G11  23562514.626       39459.749        2023.299          43.500  
G17  21227090.137      -44833.440       -2312.312          52.000  
G22  23074106.444       15278.709         815.232          46.250  
G28  20797884.912        6641.693         366.455          47.750  
> 2018  4 22 11 21 15.5688020  0  6                     
G 1  22902490.368       41166.569        2015.433          49.000  
G 3  21522021.234      -16578.203        -815.731          42.250  
G11  23564385.174       39662.118        2022.827          44.250  
G17  21228877.976      -45064.662       -2312.557          52.000  
G22  23075953.196       15360.152         813.806          46.250  
G28  20799722.234        6678.366         366.759          47.500  
> 2018  4 22 11 21 15.6688020  0  6                     
G 1  22904360.500       41368.080        2015.391          49.000  
G 3  21523837.254      -16659.735        -815.705          42.000  
G11  23566255.806       39864.506        2023.126          44.250  
G17  21230665.976      -45295.866       -2312.223          52.000  
G22  23077799.176       15441.633         814.797          46.500  
G28  20801562.046        6715.065         367.005          47.750  
> 2018  4 22 11 21 15.7688020  0  6                     
G 1  22906230.531       41569.602        2016.378          49.250  
G 3  21525652.849      -16741.261        -814.677          42.500  
G11  23568126.160       40066.896        2024.492          44.000  
G17  21232453.476      -45527.067       -2311.883          52.000  
G22  23079647.096       15523.112         814.594          46.250  
G28  20803400.087        6751.763         367.584          47.500  
> 2018  4 22 11 21 15.8688020  0  6                     
G 1  22908100.405       41771.091        2015.843          49.000  
G 3  21527467.457      -16822.806        -815.503          42.000  
G11  23569995.782       40269.277        2024.100          44.000  
G17  21234241.103      -45758.272       -2312.129          52.000  
G22  23081494.976       15604.598         814.911          46.250  
G28  20805238.583        6788.462         366.236          47.750  
> 2018  4 22 11 21 15.9688020  0  6                     
G 1  22909970.089       41972.542        2014.402          49.000  
G 3  21529285.027      -16904.387        -816.053          42.250  
G11  23571865.636       40471.614        2023.340          44.000  
G17  21236028.923      -45989.530       -2312.871          52.000  
G22  23083341.519       15686.017         814.111          46.500  
G28  20807077.802        6825.114         366.340          47.750  
> 2018  4 22 11 21 16.0688020  0  6                     
G 1  22911840.463       42173.975        2014.443          49.000  
G 3  21531101.336      -16985.982        -815.771          42.000  
G11  23573735.144       40673.922        2023.611          44.000  
G17  21237816.396      -46220.815       -2312.244          52.000  
G22  23085188.296       15767.429         813.978          46.250  
G28  20808914.391        6861.747         366.743          47.750  
> 2018  4 22 11 21 16.1688020  0  6                     
G 1  22913710.278       42375.426        2014.631          49.000  
G 3  21532918.269      -17067.548        -815.643          42.250  
G11  23575605.090       40876.255        2023.598          44.250  
G17  21239604.294      -46452.060       -2312.149          52.000  
G22  23087035.268       15848.880         815.676          46.500  
G28  20810754.631        6898.406         367.068          47.750  
> 2018  4 22 11 21 16.2688020  0  6                     
G 1  22915579.565       42576.913        2014.489          49.000  
G 3  21534734.007      -17149.077        -815.433          42.250  
G11  23577475.074       41078.616        2023.226          44.250  
G17  21241391.771      -46683.283       -2312.890          52.000  
G22  23088882.681       15930.351         814.268          46.500  
G28  20812593.228        6935.102         366.234          47.750  
> 2018  4 22 11 21 16.3688020  0  6                     
G 1  22917449.059       42778.361        2014.949          49.000  
G 3  21536549.126      -17230.654        -814.912          42.000  
G11  23579345.038       41280.938        2023.720          44.250  
G17  21243179.481      -46914.554       -2312.546          52.000  
G22  23090729.379       16011.768         814.145          46.500  
G28  20814430.729        6971.760         366.933          47.750  
> 2018  4 22 11 21 16.4688020  0  6                     
G 1  22919318.792       42979.747        2013.479          49.000  
G 3  21538365.000      -17312.264        -816.323          42.250  
G11  23581215.195       41483.194        2021.066          44.250  
G17  21244966.524      -47145.865       -2313.830          52.000  
G22  23092576.683       16093.167         812.615          46.500  
G28  20816271.640        7008.370         365.264          47.500  
> 2018  4 22 11 21 16.5688020  0  6                     
G 1  22921189.060       43181.088        2013.578          49.000  
G 3  21540180.672      -17393.944        -817.292          42.000  
G11  23583085.887       41685.419        2021.560          44.500  
G17  21246754.194      -47377.242       -2314.202          52.000  
G22  23094424.641       16174.496         813.161          46.500  
G28  20818108.564        7044.931         365.166          47.750  
> 2018  4 22 11 21 16.6688020  0  6                     
G 1  22923057.907       43382.398        2013.096          49.000  
G 3  21541996.789      -17475.626        -817.490          42.250  
G11  23584956.639       41887.596        2022.409          44.000  
G17  21248541.781      -47608.641       -2314.233          52.000  
G22  23096271.896       16255.808         812.878          46.250  
G28  20819947.275        7081.464         365.359          47.500  
> 2018  4 22 11 21 16.7688020  0  6                     
G 1  22924927.976       43583.689        2013.714          48.750  
G 3  21543813.662      -17557.317        -817.157          42.500  
G11  23586826.396       42089.784        2022.723          44.000  
G17  21250329.282      -47840.040       -2313.181          52.000  
G22  23098117.957       16337.103         813.145          46.500  
G28  20821786.838        7117.994         365.493          47.750  
> 2018  4 22 11 21 16.8688020  0  6                     
G 1  22926797.839       43785.014        2012.644          49.000  
G 3  21545627.889      -17638.956        -818.186          41.750  
G11  23588696.426       42291.969        2021.940          44.000  
G17  21252117.098      -48071.420       -2314.406          52.000  
G22  23099964.874       16418.448         812.772          46.250  
G28  20823624.244        7154.563         365.147          47.500  
> 2018  4 22 11 21 16.9688020  0  6                     
G 1  22928667.926       43986.318        2013.115          49.250  
G 3  21547443.314      -17720.658        -816.679          42.000  
G11  23590565.657       42494.138        2021.457          44.250  
G17  21253904.049      -48302.830       -2314.214          52.000  
G22  23101811.064       16499.759         813.282          46.250  
G28  20825464.325        7191.093         365.028          47.750  
> 2018  4 22 11 21 17.0688020  0  6                     
G 1  22930538.084       44187.585        2013.461          49.250  
G 3  21549258.964      -17802.364        -817.582          42.250  
G11  23592435.981       42696.286        2021.497          44.000  
G17  21255691.937      -48534.267       -2314.401          52.000  
G22  23103658.086       16581.034         812.407          46.250  
G28  20827302.084        7227.604         365.744          47.750  
> 2018  4 22 11 21 17.1688020  0  6                     
G 1  22932408.071       44388.868        2013.597          49.250  
G 3  21551074.358      -17884.036        -816.979          42.000  
G11  23594306.319       42898.451        2022.534          44.000  
G17  21257479.088      -48765.682       -2313.333          52.000  
G22  23105505.693       16662.341         812.966          46.750  
G28  20829140.172        7264.143         366.309          47.750  
> 2018  4 22 11 21 17.2688020  0  6                     
G 1  22934278.030       44590.242        2014.527          49.250  
G 3  21552890.812      -17965.619        -815.760          42.000  
G11  23596176.070       43100.690        2021.838          44.000  
G17  21259266.440      -48997.011       -2313.311          52.000  
G22  23107353.071       16743.743         814.139          46.500  
G28  20830980.367        7300.764         366.589          47.750  
> 2018  4 22 11 21 17.3688020  0  6                     
G 1  22936147.525       44791.689        2015.005          48.750  
G 3  21554708.484      -18047.130        -814.169          42.250  
G11  23598046.019       43303.005        2024.000          44.250  
G17  21261054.475      -49228.269       -2312.307          52.000  
G22  23109201.162       16825.211         814.906          46.500  
G28  20832817.531        7337.466         367.267          48.000  
> 2018  4 22 11 21 17.4688020  0  6                     
G 1  22938017.481       44993.203        2015.921          49.250  
G 3  21556526.199      -18128.577        -814.552          42.250  
G11  23599917.131       43505.378        2024.336          44.250  
G17  21262841.858      -49459.459       -2311.829          52.000  
G22  23111047.271       16906.771         817.026          46.500  
G28  20834656.826        7374.240         368.854          47.750  
> 2018  4 22 11 21 17.5688020  0  6                     
G 1  22939887.180       45194.774        2016.393          49.250  
G 3  21558341.636      -18209.944        -813.242          42.000  
G11  23601787.004       43707.843        2024.880          44.250  
G17  21264629.678      -49690.583       -2310.789          52.000  
G22  23112893.726       16988.368         817.117          46.250  
G28  20836495.612        7411.075         369.279          47.750  
> 2018  4 22 11 21 17.6688020  0  6                     
G 1  22941756.689       45396.429        2017.140          49.250  
G 3  21560157.534      -18291.215        -811.925          42.000  
G11  23603656.967       43910.368        2025.694          44.000  
G17  21266417.622      -49921.627       -2310.219          51.750  
G22  23114740.091       17070.065         817.274          46.250  
G28  20838333.363        7448.004         369.339          47.500  
> 2018  4 22 11 21 17.7688020  0  6                     
G 1  22943626.258       45598.100        2017.440          49.000  
G 3  21561973.938      -18372.492        -812.790          42.250  
G11  23605527.844       44112.908        2026.515          43.750  
G17  21268205.020      -50152.660       -2310.155          51.750  
G22  23116588.196       17151.765         817.127          46.750  
G28  20840174.118        7484.932         369.220          47.750  
> 2018  4 22 11 21 17.8688020  0  6                     
G 1  22945496.648       45799.785        2017.225          49.000  
G 3  21563789.018      -18453.729        -811.421          41.500  
G11  23607398.143       44315.473        2026.402          44.000  
G17  21269992.754      -50383.659       -2310.301          51.750  
