     3.02           OBSERVATION DATA    M: Mixed            RINEX VERSION / TYPE
GNSS-SDRLIB v1.1                        20180429 101509 UTC PGM / RUN BY / DATE 
                                                            MARKER NAME         
                                                            MARKER NUMBER       
                                                            MARKER TYPE         
                                                            OBSERVER / AGENCY   
GNSS-SDRLIB         GNSS-SDRLIB         1.1                 REC # / TYPE / VERS 
                                                            ANT # / TYPE        
        0.0000        0.0000        0.0000                  APPROX POSITION XYZ 
        0.0000        0.0000        0.0000                  ANTENNA: DELTA H/E/N
G    4 C1C L1C D1C S1C                                      SYS / # / OBS TYPES 
R    4 C1C L1C D1C S1C                                      SYS / # / OBS TYPES 
E    4 C1C L1C D1C S1C                                      SYS / # / OBS TYPES 
J    4 C1C L1C D1C S1C                                      SYS / # / OBS TYPES 
S    4 C1C L1C D1C S1C                                      SYS / # / OBS TYPES 
C    4 C1C L1C D1C S1C                                      SYS / # / OBS TYPES 
  1970     1     1     0     0    0.0000000     GPS         TIME OF FIRST OBS   
  1970     1     1     0     0    0.0000000     GPS         TIME OF LAST OBS    
G                                                           SYS / PHASE SHIFT   
R                                                           SYS / PHASE SHIFT   
E                                                           SYS / PHASE SHIFT   
J                                                           SYS / PHASE SHIFT   
S                                                           SYS / PHASE SHIFT   
C                                                           SYS / PHASE SHIFT   
  0                                                         GLONASS SLOT / FRQ #
 C1C    0.000 C1P    0.000 C2C    0.000 C2P    0.000        GLONASS COD/PHS/BIS 
                                                            END OF HEADER       
> 2018  4 22 11 21  6.0688020  0  1                     
G28  20625059.279        3265.449         352.530          48.500  
> 2018  4 22 11 21  6.1688020  0  1                     
G28  20626915.714        3300.677         353.090          48.000  
> 2018  4 22 11 21  6.0688020  0  2                     
G17  21059048.142      -23043.569       -2314.746          51.750  
G28  20625059.279        3265.449         352.530          48.000  
> 2018  4 22 11 21  6.1688020  0  2                     
G17  21060853.698      -23276.180       -2336.401          51.750  
G28  20626915.714        3300.677         353.090          48.000  
> 2018  4 22 11 21  6.0688020  0  3                     
G 3  21349491.514       -8743.604        -794.633          42.750  
G17  21059048.142      -23043.720       -2324.050          51.750  
G28  20625059.279        3265.449         352.530          48.000  
> 2018  4 22 11 21  6.1688020  0  3                     
G 3  21351325.606       -8834.493        -845.003          42.500  
G17  21060853.698      -23276.054       -2323.824          51.750  
G28  20626915.714        3300.677         353.090          48.000  
> 2018  4 22 11 21  6.0688020  0  4                     
G 1  22724837.661       22077.248        1994.438          48.750  
G 3  21349491.514       -8751.669        -830.684          42.500  
G17  21059048.142      -23043.720       -2324.050          51.750  
G28  20625059.279        3265.449         352.530          48.000  
> 2018  4 22 11 21  6.1688020  0  4                     
G 1  22726725.697       22277.895        2008.852          49.000  
G 3  21351325.606       -8834.313        -830.802          42.500  
G17  21060853.698      -23276.054       -2323.824          51.750  
G28  20626915.714        3300.677         353.090          48.000  
> 2018  4 22 11 21  6.0688020  0  5                     
G 1  22724837.661       22077.335        2004.250          49.000  
G 3  21349491.514       -8751.669        -830.684          42.500  
G17  21059048.142      -23043.720       -2324.050          51.750  
G22  22900473.531        7691.042         785.709          46.250  
G28  20625059.279        3265.449         352.530          48.000  
> 2018  4 22 11 21  6.1688020  0  5                     
G 1  22726725.697       22277.790        2004.207          49.000  
G 3  21351325.606       -8834.313        -830.802          42.500  
G17  21060853.698      -23276.054       -2323.824          51.750  
G22  22902337.539        7771.231         798.998          46.500  
G28  20626915.714        3300.677         353.090          48.000  
> 2018  4 22 11 21  6.0688020  0  6                     
G 1  22724837.661       22077.335        2004.250          49.000  
G 3  21349491.514       -8751.669        -830.684          42.500  
G11  23386715.876       20488.512        2029.158          44.250  
G17  21059048.142      -23043.720       -2324.050          51.750  
G22  22900473.531        7691.223         800.926          46.500  
G28  20625059.279        3265.449         352.530          48.000  
> 2018  4 22 11 21  6.1688020  0  6                     
G 1  22726725.697       22277.790        2004.207          49.000  
G 3  21351325.606       -8834.313        -830.802          42.500  
G11  23388604.424       20689.553        2012.344          44.500  
G17  21060853.698      -23276.054       -2323.824          51.750  
G22  22902337.539        7771.287         801.390          46.500  
G28  20626915.714        3300.677         353.090          48.000  
> 2018  4 22 11 21  6.2688020  0  6                     
G 1  22728595.282       22478.288        2005.248          49.000  
G 3  21353142.416       -8917.404        -830.847          42.500  
G11  23390475.334       20891.096        2014.182          44.250  
G17  21062641.691      -23508.342       -2322.585          51.750  
G22  22904184.874        7851.395         801.434          46.500  
G28  20628755.266        3335.978         353.018          48.250  
> 2018  4 22 11 21  6.3688020  0  6                     
G 1  22730465.281       22678.888        2006.155          48.750  
G 3  21354957.208       -9000.365        -830.131          42.750  
G11  23392345.346       21092.598        2015.187          44.250  
G17  21064429.016      -23740.516       -2322.536          51.750  
G22  22906032.116        7931.626         802.140          46.500  
G28  20630591.193        3371.383         354.289          48.250  
> 2018  4 22 11 21  6.4688020  0  6                     
G 1  22732335.782       22879.542        2007.373          49.000  
G 3  21356772.492       -9083.272        -828.075          42.500  
G11  23394215.028       21294.146        2016.015          44.250  
G17  21066216.682      -23972.660       -2320.948          51.500  
G22  22907879.142        8011.887         803.286          46.250  
G28  20632430.235        3406.837         354.426          48.500  
> 2018  4 22 11 21  6.5688020  0  6                     
G 1  22734205.549       23080.236        2006.998          49.000  
G 3  21358589.685       -9166.138        -828.557          42.750  
G11  23396084.277       21495.738        2015.718          44.250  
G17  21068004.738      -24204.746       -2320.750          51.750  
G22  22909725.179        8092.211         803.118          46.250  
G28  20634269.756        3442.341         355.526          48.250  
> 2018  4 22 11 21  6.6688020  0  6                     
G 1  22736075.321       23280.954        2008.092          49.000  
G 3  21360405.259       -9248.965        -828.301          42.250  
G11  23397955.246       21697.379        2017.196          44.250  
G17  21069792.229      -24436.803       -2320.367          51.750  
G22  22911571.949        8172.563         804.247          46.500  
G28  20636106.887        3477.880         356.043          48.250  
> 2018  4 22 11 21  6.7688020  0  6                     
G 1  22737945.585       23481.788        2008.752          49.000  
G 3  21362221.074       -9331.669        -825.874          42.500  
G11  23399825.514       21899.100        2017.704          44.250  
G17  21071579.690      -24668.749       -2319.374          51.500  
G22  22913419.703        8253.029         805.769          46.500  
G28  20637946.712        3513.525         356.693          48.500  
> 2018  4 22 11 21  6.8688020  0  6                     
G 1  22739815.342       23682.660        2008.243          49.000  
G 3  21364037.072       -9414.354        -826.398          42.500  
G11  23401695.350       22100.875        2017.245          44.500  
G17  21073366.711      -24900.658       -2319.282          51.750  
G22  22915266.681        8333.542         805.831          46.750  
G28  20639784.208        3549.208         356.827          48.250  
> 2018  4 22 11 21  6.9688020  0  6                     
G 1  22741684.526       23883.585        2009.628          49.000  
G 3  21365851.540       -9496.947        -825.920          42.750  
G11  23403565.659       22302.698        2018.478          44.000  
G17  21075154.375      -25132.510       -2318.366          51.500  
G22  22917113.390        8414.111         805.645          46.500  
G28  20641621.669        3584.951         357.888          48.250  
> 2018  4 22 11 21  7.0688020  0  6                     
G 1  22743554.218       24084.521        2009.247          48.750  
G 3  21367666.957       -9579.582        -826.021          42.250  
G11  23405436.365       22504.530        2018.424          44.000  
G17  21076941.869      -25364.356       -2318.377          51.750  
G22  22918960.906        8494.695         806.587          46.250  
G28  20643461.145        3620.716         358.108          48.250  
> 2018  4 22 11 21  7.1688020  0  6                     
G 1  22745423.847       24285.478        2009.030          49.000  
G 3  21369483.890       -9662.136        -825.694          42.000  
G11  23407305.994       22706.393        2019.133          44.000  
G17  21078729.655      -25596.186       -2318.977          51.750  
G22  22920808.320        8575.285         806.116          46.250  
G28  20645298.510        3656.507         357.853          48.250  
> 2018  4 22 11 21  7.2688020  0  6                     
G 1  22747294.008       24486.400        2008.838          49.000  
G 3  21371300.041       -9744.722        -825.861          42.000  
G11  23409176.056       22908.204        2017.665          44.000  
G17  21080517.325      -25828.033       -2318.177          51.750  
G22  22922655.631        8655.870         804.978          46.500  
G28  20647137.006        3692.268         357.234          48.250  
> 2018  4 22 11 21  7.3688020  0  6                     
G 1  22749163.529       24687.299        2008.446          49.250  
G 3  21373115.356       -9827.337        -826.749          42.500  
G11  23411046.483       23110.005        2017.070          44.000  
G17  21082304.209      -26059.910       -2319.300          51.750  
G22  22924502.242        8736.429         806.444          46.250  
G28  20648976.480        3728.009         357.427          48.250  
> 2018  4 22 11 21  7.4688020  0  6                     
G 1  22751033.583       24888.207        2009.954          49.000  
G 3  21374930.928       -9909.944        -825.919          42.250  
G11  23412916.606       23311.827        2019.298          44.000  
G17  21084091.550      -26291.765       -2318.090          51.750  
G22  22926347.239        8816.988         806.160          46.250  
G28  20650812.417        3763.774         358.457          48.000  
> 2018  4 22 11 21  7.5688020  0  6                     
G 1  22752903.690       25089.169        2009.507          49.000  
G 3  21376747.012       -9992.487        -825.668          42.500  
G11  23414785.584       23513.679        2018.258          44.250  
G17  21085879.119      -26523.593       -2318.117          51.750  
G22  22928194.511        8897.610         806.343          46.250  
G28  20652651.475        3799.568         357.742          48.250  
> 2018  4 22 11 21  7.6688020  0  6                     
G 1  22754773.814       25290.112        2009.257          49.000  
G 3  21378562.444      -10075.049        -826.502          42.750  
G11  23416655.695       23715.502        2019.009          44.250  
G17  21087666.299      -26755.432       -2318.766          51.750  
G22  22930041.929        8978.214         805.677          46.500  
G28  20654490.509        3835.356         358.290          48.000  
> 2018  4 22 11 21  7.7688020  0  6                     
G 1  22756644.465       25491.013        2009.767          48.750  
G 3  21380378.854      -10157.638        -825.669          42.500  
G11  23418525.437       23917.305        2018.075          44.250  
G17  21089453.667      -26987.301       -2318.947          51.750  
G22  22931889.726        9058.794         806.103          46.250  
G28  20656327.474        3871.124         357.648          48.250  
> 2018  4 22 11 21  7.8688020  0  6                     
G 1  22758514.331       25691.896        2008.582          49.000  
G 3  21382194.803      -10240.250        -827.287          42.750  
G11  23420395.268       24119.087        2017.139          44.000  
G17  21091240.594      -27219.182       -2319.125          51.750  
G22  22933736.483        9139.352         805.482          46.250  
G28  20658166.644        3906.862         357.227          48.250  
> 2018  4 22 11 21  7.9688020  0  6                     
G 1  22760384.710       25892.774        2009.057          48.750  
G 3  21384010.593      -10322.839        -825.326          43.000  
G11  23422266.776       24320.854        2017.359          44.000  
G17  21093028.444      -27451.078       -2318.993          51.750  
G22  22935583.694        9219.902         805.728          46.750  
G28  20660005.051        3942.618         357.860          48.250  
> 2018  4 22 11 21  8.0688020  0  6                     
G 1  22762254.306       26093.635        2008.270          49.000  
G 3  21385826.157      -10405.433        -826.380          42.500  
G11  23424136.668       24522.643        2017.626          44.250  
G17  21094815.866      -27682.978       -2319.703          52.000  
G22  22937430.263        9300.458         805.137          46.500  
G28  20661843.750        3978.353         357.527          48.250  
> 2018  4 22 11 21  8.1688020  0  6                     
G 1  22764123.736       26294.491        2009.110          49.000  
G 3  21387641.506      -10488.049        -825.768          42.750  
G11  23426006.346       24724.384        2017.200          44.000  
G17  21096603.075      -27914.891       -2318.799          52.000  
G22  22939277.623        9380.993         806.146          46.250  
G28  20663684.120        4014.081         358.254          48.000  
> 2018  4 22 11 21  8.2688020  0  6                     
G 1  22765992.991       26495.366        2009.191          49.000  
G 3  21389457.455      -10570.648        -824.746          42.750  
G11  23427876.888       24926.146        2018.021          44.000  
G17  21098390.666      -28146.793       -2318.542          51.750  
G22  22941125.205        9461.556         806.486          46.500  
G28  20665520.106        4049.829         358.233          48.000  
> 2018  4 22 11 21  8.3688020  0  6                     
G 1  22767862.594       26696.285        2009.419          49.000  
G 3  21391273.097      -10653.169        -824.747          43.000  
G11  23429745.830       25127.975        2018.597          44.500  
G17  21100178.222      -28378.642       -2318.631          51.750  
G22  22942972.860        9542.179         806.583          46.500  
G28  20667358.089        4085.632         358.941          48.250  
> 2018  4 22 11 21  8.4688020  0  6                     
G 1  22769732.079       26897.162        2009.039          49.000  
G 3  21393089.363      -10735.755        -825.908          42.750  
G11  23431615.390       25329.749        2017.956          44.250  
G17  21101965.971      -28610.542       -2318.689          51.750  
G22  22944819.253        9622.753         806.130          46.250  
G28  20669197.315        4121.396         358.399          48.250  
> 2018  4 22 11 21  8.5688020  0  6                     
G 1  22771602.176       27098.077        2009.935          49.250  
G 3  21394905.184      -10818.270        -824.674          42.500  
G11  23433485.576       25531.556        2018.376          44.000  
G17  21103753.316      -28842.391       -2318.480          51.750  
G22  22946666.353        9703.357         806.482          46.000  
G28  20671034.308        4157.197         358.430          48.250  
> 2018  4 22 11 21  8.6688020  0  6                     
G 1  22773471.276       27298.985        2009.154          49.000  
G 3  21396722.226      -10900.788        -825.169          42.000  
G11  23435356.325       25733.375        2018.627          44.500  
G17  21105541.337      -29074.232       -2318.703          51.750  
G22  22948511.831        9783.999         806.720          46.250  
G28  20672874.567        4193.014         357.466          48.250  
> 2018  4 22 11 21  8.7688020  0  6                     
G 1  22775340.639       27499.859        2008.618          49.000  
G 3  21398537.148      -10983.377        -826.370          42.000  
G11  23437227.560       25935.117        2017.119          44.500  
G17  21107328.478      -29306.141       -2319.669          51.750  
G22  22950358.662        9864.559         805.309          46.250  
G28  20674712.416        4228.769         357.393          48.250  
> 2018  4 22 11 21  8.8688020  0  6                     
G 1  22777210.763       27700.670        2008.612          49.000  
G 3  21400352.445      -11066.001        -825.427          42.000  
G11  23439096.954       26136.838        2017.672          44.500  
G17  21109115.943      -29538.079       -2319.732          52.000  
G22  22952206.183        9945.093         805.297          46.250  
G28  20676550.157        4264.495         356.608          48.500  
> 2018  4 22 11 21  8.9688020  0  6                     
G 1  22779080.616       27901.503        2008.171          49.000  
G 3  21402167.964      -11148.619        -827.044          42.500  
G11  23440967.116       26338.569        2017.251          44.250  
G17  21110903.295      -29770.026       -2319.372          51.750  
G22  22954053.382       10025.628         805.315          46.500  
G28  20678389.798        4300.221         357.130          48.000  
> 2018  4 22 11 21  9.0688020  0  6                     
G 1  22780950.776       28102.349        2008.327          49.000  
G 3  21403983.344      -11231.143        -824.654          42.500  
G11  23442836.540       26540.314        2016.635          44.250  
G17  21112690.531      -30001.932       -2319.268          51.750  
G22  22955900.380       10106.215         805.439          46.000  
G28  20680227.152        4335.999         357.960          47.750  
> 2018  4 22 11 21  9.1688020  0  6                     
G 1  22782820.971       28303.203        2008.497          48.750  
G 3  21405799.624      -11313.724        -825.887          43.000  
G11  23444705.674       26742.061        2016.727          44.250  
G17  21114478.457      -30233.839       -2319.126          51.750  
G22  22957746.449       10186.779         805.991          46.250  
G28  20682064.897        4371.763         357.764          48.000  
> 2018  4 22 11 21  9.2688020  0  6                     
G 1  22784690.470       28504.041        2008.200          48.750  
G 3  21407616.077      -11396.285        -826.568          42.750  
G11  23446576.061       26943.812        2017.122          44.250  
G17  21116265.759      -30465.758       -2319.427          51.750  
G22  22959592.602       10267.349         805.147          46.250  
G28  20683904.986        4407.524         357.076          48.000  
> 2018  4 22 11 21  9.3688020  0  6                     
G 1  22786559.902       28704.859        2008.815          49.000  
G 3  21409431.640      -11478.862        -825.799          42.250  
G11  23448445.837       27145.512        2016.821          44.500  
G17  21118053.163      -30697.713       -2319.609          51.750  
G22  22961440.024       10347.889         805.953          46.250  
G28  20685741.556        4443.264         357.331          48.000  
> 2018  4 22 11 21  9.4688020  0  6                     
G 1  22788429.478       28905.686        2008.114          49.250  
G 3  21411247.320      -11561.403        -825.237          41.750  
G11  23450316.166       27347.222        2017.616          44.250  
G17  21119841.177      -30929.630       -2318.883          51.750  
G22  22963288.369       10428.451         805.613          46.500  
G28  20687580.673        4479.021         358.320          48.000  
> 2018  4 22 11 21  9.5688020  0  6                     
G 1  22790299.255       29106.466        2008.370          49.000  
G 3  21413063.720      -11644.048        -825.989          41.000  
G11  23452186.038       27548.892        2017.116          44.000  
G17  21121628.446      -31161.624       -2319.830          52.000  
G22  22965135.846       10508.973         805.244          46.500  
G28  20689418.438        4514.729         357.521          48.000  
> 2018  4 22 11 21  9.6688020  0  6                     
G 1  22792169.122       29307.147        2006.518          49.000  
G 3  21414880.090      -11726.772        -827.829          41.750  
G11  23454056.388       27750.482        2015.441          44.250  
G17  21123416.361      -31393.689       -2321.203          51.750  
G22  22966982.582       10589.404         803.067          46.500  
G28  20691255.742        4550.354         355.636          47.750  
> 2018  4 22 11 21  9.7688020  0  6                     
G 1  22794038.262       29507.798        2006.222          49.000  
G 3  21416695.328      -11809.512        -828.019          42.750  
G11  23455926.127       27952.015        2014.814          44.500  
G17  21125203.515      -31625.809       -2321.570          52.000  
G22  22968829.568       10669.797         803.583          46.500  
G28  20693095.073        4585.943         355.467          48.000  
> 2018  4 22 11 21  9.8688020  0  6                     
G 1  22795908.053       29708.420        2006.500          49.250  
G 3  21418511.617      -11892.234        -828.051          43.250  
G11  23457795.884       28153.546        2015.343          44.750  
G17  21126990.983      -31857.942       -2321.938          51.750  
G22  22970677.135       10750.159         803.894          46.250  
G28  20694933.152        4621.515         355.294          48.000  
> 2018  4 22 11 21  9.9688020  0  6                     
G 1  22797778.083       29908.994        2005.841          48.750  
G 3  21420328.729      -11975.008        -828.264          42.500  
G11  23459666.773       28355.003        2014.780          44.000  
G17  21128778.448      -32090.131       -2322.123          51.750  
G22  22972523.708       10830.501         803.474          46.000  
G28  20696770.782        4657.036         354.953          47.750  
> 2018  4 22 11 21 10.0688020  0  6                     
G 1  22799648.117       30109.515        2004.787          49.000  
G 3  21422144.435      -12057.852        -829.286          42.500  
G11  23461537.046       28556.411        2014.040          44.500  
G17  21130565.328      -32322.346       -2322.708          52.000  
G22  22974370.125       10910.776         803.145          46.500  
G28  20698610.733        4692.517         354.366          48.000  
> 2018  4 22 11 21 10.1688020  0  6                     
G 1  22801518.246       30310.000        2004.753          49.000  
G 3  21423959.752      -12140.738        -829.416          42.000  
G11  23463406.303       28757.793        2013.865          44.000  
G17  21132353.218      -32554.629       -2323.036          51.750  
G22  22976217.232       10991.020         802.816          46.250  
G28  20700447.875        4727.956         354.382          48.000  
> 2018  4 22 11 21 10.2688020  0  6                     
G 1  22803387.870       30510.413        2003.560          49.000  
G 3  21425774.649      -12223.683        -829.089          42.500  
G11  23465276.241       28959.090        2012.738          44.000  
G17  21134140.486      -32786.968       -2324.403          51.750  
G22  22978064.199       11071.194         801.287          46.500  
G28  20702287.023        4763.333         353.019          48.250  
> 2018  4 22 11 21 10.3688020  0  6                     
G 1  22805257.885       30710.813        2004.075          49.000  
G 3  21427591.406      -12306.617        -828.379          43.000  
G11  23467145.996       29160.394        2013.710          44.250  
G17  21135927.704      -33019.319       -2323.154          52.000  
G22  22979911.372       11151.377         802.229          46.500  
G28  20704125.568        4798.698         354.375          48.250  
> 2018  4 22 11 21 10.4688020  0  6                     
G 1  22807127.430       30911.260        2004.367          49.000  
G 3  21429407.701      -12389.499        -828.321          43.500  
G11  23469015.477       29361.733        2014.224          44.250  
G17  21137715.293      -33251.625       -2323.391          51.750  
G22  22981757.199       11231.582         802.078          46.500  
G28  20705962.610        4834.124         354.089          48.000  
> 2018  4 22 11 21 10.5688020  0  6                     
G 1  22808996.940       31111.691        2004.339          49.250  
G 3  21431223.145      -12472.394        -829.130          43.000  
G11  23470884.295       29563.058        2013.248          44.250  
G17  21139502.541      -33483.952       -2323.054          52.000  
G22  22983603.153       11311.792         801.924          46.500  
G28  20707801.630        4869.526         354.040          48.000  
> 2018  4 22 11 21 10.6688020  0  6                     
G 1  22810866.735       31312.160        2005.032          49.000  
G 3  21433038.094      -12555.281        -827.227          41.000  
G11  23472754.935       29764.401        2014.649          44.250  
G17  21141290.876      -33716.242       -2322.976          52.000  
G22  22985450.009       11392.041         803.031          46.500  
G28  20709639.682        4904.957         355.158          48.000  
> 2018  4 22 11 21 10.7688020  0  6                     
G 1  22812736.352       31512.628        2004.543          49.250  
G 3  21434853.185      -12638.155        -829.420          42.000  
G11  23474624.792       29965.762        2013.223          44.250  
G17  21143077.846      -33948.534       -2323.100          51.750  
G22  22987296.823       11472.278         802.236          46.250  
G28  20711476.987        4940.410         354.331          48.250  
> 2018  4 22 11 21 10.8688020  0  6                     
G 1  22814606.248       31713.152        2028.731          49.250  
G 3  21436670.855      -12720.975        -828.161          42.750  
G11  23476494.763       30167.120        2013.221          44.250  
G17  21144865.208      -34180.793       -2322.811          51.750  
G22  22989144.337       11552.557         802.757          46.250  
G28  20713317.031        4975.868         354.436          48.000  
> 2018  4 22 11 21 10.9688020  0  6                     
G 1  22816476.123       31913.696        2021.495          49.250  
G 3  21438487.641      -12803.778        -828.019          42.750  
G11  23478365.486       30368.529        2013.911          44.250  
G17  21146652.741      -34413.029       -2322.672          51.750  
G22  22990991.537       11632.851         802.592          46.250  
G28  20715154.050        5011.373         355.307          48.000  
> 2018  4 22 11 21 11.0688020  0  6                     
G 1  22818346.129       32114.093        2004.908          49.250  
G 3  21440302.418      -12886.622        -828.598          42.500  
G11  23480234.042       30569.885        2013.194          44.000  
G17  21148439.449      -34645.302       -2322.856          52.000  
G22  22992836.519       11713.126         803.000          46.500  
G28  20716991.954        5046.842         354.446          48.000  
> 2018  4 22 11 21 11.1688020  0  6                     
G 1  22820215.764       32314.592        2005.202          49.250  
G 3  21442117.576      -12969.392        -826.294          42.250  
G11  23482102.691       30771.278        2013.714          43.750  
G17  21150226.828      -34877.546       -2322.492          52.000  
G22  22994683.553       11793.409         802.860          46.250  
G28  20718832.260        5082.338         354.520          47.750  
> 2018  4 22 11 21 11.2688020  0  6                     
G 1  22822084.907       32515.111        2005.407          49.000  
G 3  21443933.684      -13052.190        -827.377          42.000  
G11  23483972.889       30972.682        2014.803          44.000  
G17  21152013.811      -35109.775       -2322.549          51.750  
G22  22996530.942       11873.738         803.886          46.250  
G28  20720668.076        5117.862         355.370          48.000  
> 2018  4 22 11 21 11.3688020  0  6                     
G 1  22823954.444       32715.614        2005.414          49.000  
G 3  21445750.133      -13134.992        -828.493          42.750  
G11  23485841.645       31174.082        2014.018          44.000  
G17  21153801.535      -35342.021       -2322.371          51.750  
G22  22998378.439       11954.038         802.861          46.500  
G28  20722506.587        5153.372         354.680          48.000  
> 2018  4 22 11 21 11.4688020  0  6                     
G 1  22825824.422       32916.091        2004.853          49.000  
G 3  21447565.473      -13217.796        -828.893          42.250  
G11  23487711.379       31375.449        2013.362          43.750  
G17  21155588.911      -35574.287       -2322.703          51.750  
G22  23000226.076       12034.326         803.103          46.250  
G28  20724346.219        5188.857         354.882          47.750  
> 2018  4 22 11 21 11.5688020  0  6                     
G 1  22827694.871       33116.577        2005.069          48.750  
G 3  21449380.642      -13300.583        -828.419          42.750  
G11  23489581.797       31576.813        2014.027          43.750  
G17  21157376.183      -35806.542       -2322.191          51.750  
G22  23002072.230       12114.612         803.979          46.250  
G28  20726183.658        5224.369         355.650          48.000  
> 2018  4 22 11 21 11.6688020  0  6                     
G 1  22829563.984       33317.071        2005.538          49.000  
G 3  21451196.536      -13383.363        -827.887          42.500  
G11  23491451.105       31778.189        2014.384          44.000  
G17  21159163.857      -36038.786       -2322.032          52.000  
G22  23003919.109       12194.928         803.052          46.250  
G28  20728023.194        5259.866         355.354          47.750  
> 2018  4 22 11 21 11.7688020  0  6                     
G 1  22831433.225       33517.570        2005.247          49.000  
G 3  21453013.585      -13466.117        -827.720          42.750  
G11  23493321.400       31979.596        2014.564          44.000  
G17  21160951.145      -36271.031       -2322.265          52.000  
G22  23005766.062       12275.250         803.820          46.500  
G28  20729860.619        5295.397         355.500          48.000  
> 2018  4 22 11 21 11.8688020  0  6                     
G 1  22833302.938       33718.077        2005.514          49.250  
G 3  21454828.352      -13548.894        -827.063          42.250  
G11  23495191.276       32180.986        2014.885          44.250  
G17  21162738.844      -36503.258       -2321.953          52.000  
G22  23007613.222       12355.582         803.882          46.500  
G28  20731698.648        5330.950         356.279          48.000  
> 2018  4 22 11 21 11.9688020  0  6                     
G 1  22835172.701       33918.641        2005.856          49.000  
G 3  21456644.099      -13631.579        -826.302          42.750  
G11  23497061.028       32382.449        2015.271          44.250  
G17  21164526.269      -36735.427       -2321.271          52.000  
G22  23009459.834       12435.983         804.689          46.250  
G28  20733538.845        5366.543         356.347          48.000  
> 2018  4 22 11 21 12.0688020  0  6                     
G 1  22837042.752       34119.248        2007.152          49.250  
G 3  21458461.008      -13714.218        -825.872          42.500  
G11  23498931.726       32584.145        2027.576          44.000  
G17  21166313.626      -36967.569       -2320.870          52.250  
G22  23011306.836       12516.418         805.690          46.250  
G28  20735375.960        5402.188         357.899          48.250  
> 2018  4 22 11 21 12.1688020  0  6                     
G 1  22838912.687       34320.006        2007.891          49.250  
G 3  21460276.291      -13796.694        -825.232          42.500  
G11  23500801.944       32785.525        1987.239          44.250  
G17  21168101.632      -37199.537       -2319.608          52.000  
G22  23013152.795       12597.005         805.543          46.250  
G28  20737215.291        5437.980         358.789          48.250  
> 2018  4 22 11 21 12.2688020  0  6                     
G 1  22840782.900       34520.742        2007.538          49.250  
G 3  21462093.089      -13879.214        -825.503          42.500  
G11  23502672.472       32987.204        2015.772          44.250  
G17  21169888.835      -37431.543       -2320.543          52.000  
G22  23015000.260       12677.584         806.107          46.250  
G28  20739053.604        5473.771         357.604          48.000  
> 2018  4 22 11 21 12.3688020  0  6                     
G 1  22842653.494       34721.597        2009.566          49.000  
G 3  21463909.004      -13961.593        -822.990          42.500  
G11  23504542.741       33188.930        2017.087          44.000  
G17  21171676.435      -37663.435       -2318.571          52.000  
G22  23016846.565       12758.275         807.390          46.250  
G28  20740890.201        5509.650         360.158          48.250  
> 2018  4 22 11 21 12.4688020  0  6                     
G 1  22844522.596       34922.496        2008.688          49.000  
G 3  21465724.162      -14043.919        -821.981          42.750  
G11  23506412.444       33390.735        2018.933          43.750  
G17  21173463.575      -37895.256       -2318.212          52.000  
G22  23018694.671       12839.027         808.353          46.250  
G28  20742729.548        5545.628         360.086          48.000  
> 2018  4 22 11 21 12.5688020  0  6                     
G 1  22846391.908       35123.465        2009.403          49.000  
G 3  21467539.402      -14126.183        -822.190          42.500  
G11  23508281.819       33592.581        2018.889          44.000  
G17  21175251.060      -38127.035       -2318.006          52.000  
G22  23020541.942       12919.835         807.973          46.500  
G28  20744568.386        5581.641         360.451          47.750  
> 2018  4 22 11 21 12.6688020  0  6                     
G 1  22848261.602       35324.468        2010.849          49.000  
G 3  21469355.610      -14208.373        -821.583          42.250  
G11  23510151.246       33794.482        2019.614          44.000  
G17  21177038.869      -38358.758       -2316.981          52.000  
G22  23022389.569       13000.706         808.726          46.250  
G28  20746406.476        5617.703         360.410          48.000  
> 2018  4 22 11 21 12.7688020  0  6                     
G 1  22850131.180       35525.576        2011.358          49.250  
G 3  21471171.496      -14290.507        -821.003          42.250  
G11  23512021.380       33996.444        2019.523          44.000  
G17  21178826.780      -38590.387       -2315.875          52.000  
G22  23024236.097       13081.664         809.940          46.250  
G28  20748246.600        5653.871         362.128          47.750  
> 2018  4 22 11 21 12.8688020  0  6                     
G 1  22852001.654       35726.846        2013.524          48.500  
G 3  21472987.549      -14372.431        -817.761          42.250  
G11  23513890.307       34198.617        2022.938          43.750  
G17  21180614.371      -38821.849       -2313.756          51.750  
G22  23026082.957       13162.794         812.729          46.250  
G28  20750084.135        5690.222         364.509          47.750  
> 2018  4 22 11 21 12.9688020  0  6                     
G 1  22853872.012       35928.326        2015.401          49.000  
G 3  21474804.251      -14454.157        -816.333          42.500  
G11  23515761.217       34400.961        2024.292          43.750  
G17  21182401.212      -39053.114       -2312.442          51.750  
G22  23027929.553       13244.133         814.516          46.500  
G28  20751923.340        5726.743         365.689          47.750  
> 2018  4 22 11 21 13.0688020  0  6                     
G 1  22855742.020       36129.966        2016.839          49.250  
G 3  21476619.459      -14535.727        -814.785          42.000  
G11  23517631.723       34603.477        2025.704          44.000  
G17  21184188.662      -39284.213       -2310.059          52.000  
G22  23029776.483       13325.629         815.704          46.750  
G28  20753762.446        5763.468         367.836          48.000  
> 2018  4 22 11 21 13.1688020  0  6                     
G 1  22857611.761       36331.710        2017.915          49.250  
G 3  21478436.569      -14617.181        -814.065          42.250  
G11  23519501.776       34806.122        2026.463          44.000  
G17  21185975.971      -39515.198       -2309.783          52.000  
G22  23031623.852       13407.249         816.790          46.000  
G28  20755600.443        5800.299         369.071          48.000  
> 2018  4 22 11 21 13.2688020  0  6                     
G 1  22859481.938       36533.500        2018.267          49.250  
G 3  21480252.919      -14698.564        -813.182          42.750  
G11  23521372.162       35008.791        2026.581          43.750  
G17  21187763.500      -39746.140       -2309.579          52.000  
G22  23033471.605       13488.912         816.282          46.500  
G28  20757440.346        5837.169         368.732          48.000  
> 2018  4 22 11 21 13.3688020  0  6                     
G 1  22861351.492       36735.314        2017.519          49.250  
G 3  21482068.727      -14779.916        -814.051          42.500  
G11  23523242.380       35211.490        2025.636          44.000  
G17  21189551.310      -39977.046       -2309.609          52.000  
G22  23035318.344       13570.625         816.436          46.000  
G28  20759277.003        5874.080         368.105          47.750  
> 2018  4 22 11 21 13.4688020  0  6                     
G 1  22863221.064       36937.076        2016.640          49.000  
G 3  21483885.357      -14861.326        -814.664          42.500  
G11  23525111.317       35414.132        2024.894          44.000  
G17  21191338.359      -40208.022       -2310.713          51.750  
G22  23037164.818       13652.252         815.850          46.000  
G28  20761115.028        5910.933         367.142          47.750  
> 2018  4 22 11 21 13.5688020  0  6                     
G 1  22865091.652       37138.690        2015.684          49.000  
G 3  21485701.285      -14942.873        -815.214          42.250  
G11  23526981.896       35616.642        2025.485          44.000  
G17  21193126.071      -40439.126       -2311.206          52.000  
G22  23039010.854       13733.761         814.542          46.250  
G28  20762955.250        5947.659         366.888          48.000  
> 2018  4 22 11 21 13.6688020  0  6                     
G 1  22866961.656       37340.276        2015.942          49.000  
G 3  21487516.999      -15024.464        -816.008          42.250  
G11  23528852.347       35819.095        2024.187          44.250  
G17  21194914.000      -40670.276       -2311.829          52.000  
G22  23040858.009       13815.216         813.871          46.250  
G28  20764791.237        5984.342         367.063          47.750  
> 2018  4 22 11 21 13.7688020  0  6                     
G 1  22868831.154       37541.785        2015.063          48.750  
G 3  21489332.802      -15106.105        -816.803          42.500  
G11  23530721.983       36021.519        2024.642          43.750  
G17  21196701.979      -40901.481       -2312.116          52.000  
G22  23042704.477       13896.650         813.934          46.250  
G28  20766629.435        6020.961         365.559          48.000  
> 2018  4 22 11 21 13.8688020  0  6                     
G 1  22870701.201       37743.274        2014.843          49.000  
G 3  21491148.559      -15187.770        -816.541          43.000  
G11  23532592.338       36223.862        2023.931          43.750  
G17  21198489.833      -41132.731       -2312.500          52.000  
G22  23044552.125       13978.024         813.844          46.500  
G28  20768469.103        6057.557         366.120          48.000  
> 2018  4 22 11 21 13.9688020  0  6                     
G 1  22872571.229       37944.736        2014.724          49.000  
G 3  21492964.365      -15269.451        -817.376          42.250  
G11  23534462.731       36426.222        2024.187          44.250  
G17  21200277.023      -41363.981       -2312.588          52.000  
G22  23046399.760       14059.394         813.012          46.250  
G28  20770306.620        6094.140         365.829          48.250  
> 2018  4 22 11 21 14.0688020  0  6                     
G 1  22874440.672       38146.146        2013.535          49.250  
G 3  21494781.051      -15351.202        -817.506          43.000  
G11  23536333.075       36628.509        2022.778          44.000  
G17  21202065.076      -41595.305       -2313.472          52.000  
G22  23048246.750       14140.713         813.594          46.250  
G28  20772146.548        6130.670         365.417          48.000  
> 2018  4 22 11 21 14.1688020  0  6                     
G 1  22876310.512       38347.550        2014.087          49.000  
G 3  21496597.637      -15432.918        -817.816          42.500  
G11  23538202.192       36830.799        2023.513          43.750  
G17  21203852.620      -41826.613       -2313.121          52.000  
G22  23050092.851       14222.028         813.172          46.500  
G28  20773984.068        6167.193         365.949          48.000  
> 2018  4 22 11 21 14.2688020  0  6                     
G 1  22878180.380       38548.980        2014.225          49.250  
G 3  21498413.436      -15514.614        -816.630          42.250  
G11  23540071.737       37033.101        2022.670          43.750  
G17  21205640.152      -42057.917       -2313.459          52.000  
G22  23051940.721       14303.356         812.671          46.500  
G28  20775821.816        6203.748         364.977          48.000  
> 2018  4 22 11 21 14.3688020  0  6                     
G 1  22880050.092       38750.341        2013.611          49.000  
G 3  21500228.830      -15596.373        -817.880          42.250  
G11  23541942.103       37235.357        2022.630          43.750  
G17  21207427.843      -42289.267       -2313.932          52.250  
G22  23053787.471       14384.644         812.451          46.250  
G28  20777662.636        6240.242         364.672          48.000  
> 2018  4 22 11 21 14.4688020  0  6                     
G 1  22881919.987       38951.736        2013.949          49.250  
G 3  21502044.653      -15678.098        -817.807          42.500  
G11  23543811.477       37437.623        2022.425          44.000  
G17  21209215.441      -42520.603       -2313.818          52.000  
G22  23055635.571       14465.952         812.869          46.500  
G28  20779500.078        6276.768         364.893          48.000  
> 2018  4 22 11 21 14.5688020  0  6                     
G 1  22883789.530       39153.088        2013.673          49.250  
G 3  21503859.979      -15759.860        -817.463          42.250  
G11  23545681.349       37639.861        2022.281          44.000  
G17  21211003.197      -42751.974       -2314.120          52.000  
G22  23057483.185       14547.228         812.602          46.250  
G28  20781339.118        6313.255         364.678          47.750  
> 2018  4 22 11 21 14.6688020  0  6                     
G 1  22885659.918       39354.367        2013.582          49.250  
G 3  21505675.932      -15841.699        -818.627          42.500  
G11  23547551.651       37842.010        2022.840          43.750  
G17  21212790.287      -42983.429       -2314.690          52.000  
G22  23059329.487       14628.419         811.966          46.500  
G28  20783177.696        6349.671         364.334          47.750  
> 2018  4 22 11 21 14.7688020  0  6                     
G 1  22887529.437       39555.632        2012.664          49.000  
G 3  21507493.137      -15923.526        -819.379          42.250  
G11  23549423.644       38044.157        2021.013          44.000  
G17  21214577.702      -43214.869       -2314.753          52.000  
G22  23061175.877       14709.640         811.863          46.500  
G28  20785015.129        6386.097         363.742          47.750  
> 2018  4 22 11 21 14.8688020  0  6                     
G 1  22889399.935       39756.860        2012.042          49.000  
G 3  21509309.012      -16005.372        -819.239          42.500  
G11  23551293.672       38246.264        2020.313          44.000  
G17  21216365.395      -43446.355       -2315.156          52.000  
G22  23063023.642       14790.791         811.679          46.500  
G28  20786854.459        6422.474         364.290          47.750  
> 2018  4 22 11 21 14.9688020  0  6                     
G 1  22891270.310       39958.071        2012.901          49.250  
G 3  21511124.869      -16087.264        -818.558          42.250  
G11  23553164.186       38448.370        2022.811          44.000  
G17  21218153.044      -43677.854       -2314.460          52.000  
G22  23064870.065       14871.944         812.454          46.500  
G28  20788692.015        6458.853         365.083          47.750  
> 2018  4 22 11 21 15.0688020  0  6                     
G 1  22893139.997       40159.382        2012.998          49.000  
G 3  21512940.456      -16169.045        -818.256          42.250  
G11  23555033.931       38650.544        2021.700          43.750  
G17  21219940.538      -43909.268       -2314.247          52.000  
G22  23066717.404       14953.206         812.811          46.500  
G28  20790529.943        6495.315         364.890          47.750  
> 2018  4 22 11 21 15.1688020  0  6                     
G 1  22895009.742       40360.713        2013.453          49.250  
G 3  21514755.576      -16250.784        -817.658          42.250  
G11  23556904.024       38852.759        2022.111          44.250  
G17  21221727.704      -44140.653       -2314.055          52.000  
G22  23068565.078       15034.472         812.742          46.250  
G28  20792370.135        6531.806         365.317          47.750  
> 2018  4 22 11 21 15.2688020  0  6                     
G 1  22896880.373       40562.110        2014.534          49.250  
G 3  21516570.552      -16332.474        -816.423          42.250  
G11  23558774.588       39055.047        2022.455          44.000  
G17  21223515.001      -44371.963       -2312.603          51.750  
G22  23070412.422       15115.838         813.955          46.750  
G28  20794207.093        6568.386         365.516          47.750  
> 2018  4 22 11 21 15.3688020  0  6                     
G 1  22898750.294       40763.578        2015.697          49.250  
G 3  21518388.324      -16414.069        -815.356          42.250  
G11  23560643.962       39257.369        2023.528          44.000  
G17  21225302.947      -44603.226       -2312.717          52.000  
G22  23072258.953       15197.239         814.113          46.000  
G28  20796045.989        6605.017         366.477          47.500  
> 2018  4 22 11 21 15.4688020  0  6                     
G 1  22900620.123       40965.077        2015.574          49.250  
G 3  21520205.141      -16495.635        -815.646          42.250  
G11  23562514.560       39459.753        2023.299          43.500  
G17  21227090.112      -44834.441       -2312.312          52.000  
G22  23074106.447       15278.708         815.235          46.250  
G28  20797884.902        6641.694         366.455          47.750  
> 2018  4 22 11 21 15.5688020  0  6                     
G 1  22902490.381       41166.570        2015.434          49.000  
G 3  21522021.373      -16577.204        -815.758          42.250  
G11  23564385.161       39662.124        2022.829          44.250  
G17  21228877.947      -45065.663       -2312.557          52.000  
G22  23075953.202       15360.151         813.807          46.250  
G28  20799722.223        6678.366         366.759          47.500  
> 2018  4 22 11 21 15.6688020  0  6                     
G 1  22904360.516       41368.081        2015.391          49.000  
G 3  21523837.393      -16658.735        -815.701          42.000  
G11  23566255.894       39864.512        2023.134          44.250  
G17  21230665.941      -45296.867       -2312.224          52.000  
G22  23077799.188       15441.631         814.797          46.500  
G28  20801562.034        6715.066         367.005          47.750  
> 2018  4 22 11 21 15.7688020  0  6                     
G 1  22906230.547       41569.603        2016.379          49.250  
G 3  21525652.885      -16740.261        -814.683          42.500  
G11  23568126.267       40066.902        2024.491          44.000  
G17  21232453.435      -45528.068       -2311.883          52.000  
G22  23079647.113       15523.111         814.594          46.250  
G28  20803400.072        6751.763         367.584          47.500  
> 2018  4 22 11 21 15.8688020  0  6                     
G 1  22908100.423       41771.093        2015.843          49.000  
G 3  21527467.503      -16821.807        -815.512          42.000  
G11  23569995.848       40269.283        2024.113          44.000  
G17  21234241.058      -45759.274       -2312.130          52.000  
G22  23081494.999       15604.596         814.912          46.250  
G28  20805238.568        6788.462         366.236          47.750  
> 2018  4 22 11 21 15.9688020  0  6                     
G 1  22909970.106       41972.544        2014.401          49.000  
G 3  21529285.076      -16903.388        -816.047          42.250  
G11  23571865.707       40471.620        2023.340          44.000  
G17  21236028.873      -45990.531       -2312.872          52.000  
G22  23083341.546       15686.015         814.111          46.500  
G28  20807077.788        6825.114         366.340          47.750  
> 2018  4 22 11 21 16.0688020  0  6                     
G 1  22911840.420       42173.976        2014.442          49.000  
G 3  21531101.392      -16984.983        -815.773          42.000  
G11  23573735.223       40673.929        2023.611          44.000  
G17  21237816.342      -46221.816       -2312.244          52.000  
G22  23085188.326       15767.427         813.976          46.250  
G28  20808914.377        6861.747         366.743          47.750  
> 2018  4 22 11 21 16.1688020  0  6                     
G 1  22913710.221       42375.428        2014.631          49.000  
G 3  21532918.326      -17066.548        -815.643          42.250  
G11  23575605.179       40876.261        2023.598          44.250  
G17  21239604.234      -46453.061       -2312.149          52.000  
G22  23087035.305       15848.879         815.680          46.500  
G28  20810754.617        6898.406         367.068          47.750  
> 2018  4 22 11 21 16.2688020  0  6                     
G 1  22915579.503       42576.916        2014.490          49.000  
G 3  21534733.956      -17148.078        -815.434          42.250  
G11  23577475.172       41078.622        2023.226          44.250  
G17  21241391.706      -46684.284       -2312.890          52.000  
G22  23088882.723       15930.350         814.268          46.500  
G28  20812593.213        6935.103         366.234          47.750  
> 2018  4 22 11 21 16.3688020  0  6                     
G 1  22917448.988       42778.364        2014.949          49.000  
G 3  21536549.063      -17229.655        -814.907          42.000  
G11  23579345.146       41280.944        2023.720          44.250  
G17  21243179.411      -46915.555       -2312.547          52.000  
G22  23090729.425       16011.767         814.146          46.500  
G28  20814430.713        6971.760         366.932          47.750  
> 2018  4 22 11 21 16.4688020  0  6                     
G 1  22919318.714       42979.750        2013.479          49.000  
G 3  21538364.926      -17311.265        -816.327          42.250  
G11  23581215.314       41483.200        2021.065          44.250  
G17  21244966.448      -47146.866       -2313.830          52.000  
G22  23092576.733       16093.165         812.614          46.500  
G28  20816271.625        7008.370         365.264          47.500  
> 2018  4 22 11 21 16.5688020  0  6                     
G 1  22921189.051       43181.090        2013.560          49.000  
G 3  21540180.590      -17392.944        -817.295          42.000  
G11  23583086.014       41685.425        2021.557          44.500  
G17  21246754.113      -47378.243       -2314.202          52.000  
G22  23094424.696       16174.495         813.160          46.500  
G28  20818108.546        7044.931         365.166          47.750  
> 2018  4 22 11 21 16.6688020  0  6                     
G 1  22923057.901       43382.400        2013.099          49.000  
G 3  21541996.697      -17474.627        -817.486          42.250  
G11  23584956.672       41887.603        2022.412          44.000  
G17  21248541.694      -47609.642       -2314.234          52.000  
G22  23096271.958       16255.807         812.877          46.250  
G28  20819947.256        7081.464         365.360          47.500  
> 2018  4 22 11 21 16.7688020  0  6                     
G 1  22924927.971       43583.691        2013.714          48.750  
G 3  21543813.565      -17556.317        -817.157          42.500  
G11  23586826.423       42089.788        2022.716          44.000  
G17  21250329.249      -47841.041       -2313.180          52.000  
G22  23098118.021       16337.101         813.146          46.500  
G28  20821786.819        7117.994         365.491          47.750  
> 2018  4 22 11 21 16.8688020  0  6                     
G 1  22926797.839       43785.016        2012.642          49.000  
G 3  21545627.787      -17637.956        -818.187          41.750  
G11  23588696.448       42291.974        2021.940          44.000  
G17  21252117.066      -48072.421       -2314.406          52.000  
G22  23099964.887       16418.447         812.783          46.250  
G28  20823624.225        7154.563         365.146          47.500  
> 2018  4 22 11 21 16.9688020  0  6                     
G 1  22928667.927       43986.320        2013.115          49.250  
G 3  21547443.242      -17719.659        -816.698          42.000  
G11  23590565.672       42494.143        2021.457          44.250  
G17  21253904.020      -48303.831       -2314.215          52.000  
G22  23101811.076       16499.757         813.287          46.250  
G28  20825464.305        7191.093         365.029          47.750  
> 2018  4 22 11 21 17.0688020  0  6                     
G 1  22930538.087       44187.587        2013.461          49.250  
G 3  21549258.889      -17801.365        -817.586          42.250  
G11  23592435.995       42696.291        2021.497          44.000  
G17  21255691.908      -48535.269       -2314.401          52.000  
G22  23103658.095       16581.032         812.408          46.250  
G28  20827302.064        7227.604         365.745          47.750  
> 2018  4 22 11 21 17.1688020  0  6                     
G 1  22932408.076       44388.870        2013.597          49.250  
G 3  21551074.319      -17883.037        -816.977          42.000  
G11  23594306.330       42898.456        2022.533          44.000  
G17  21257479.062      -48766.684       -2313.333          52.000  
G22  23105505.699       16662.340         812.966          46.750  
G28  20829140.153        7264.143         366.308          47.750  
> 2018  4 22 11 21 17.2688020  0  6                     
G 1  22934278.036       44590.244        2014.527          49.250  
G 3  21552890.782      -17964.620        -815.765          42.000  
G11  23596176.085       43100.695        2021.836          44.000  
G17  21259266.416      -48998.013       -2313.311          52.000  
G22  23107353.072       16743.741         814.138          46.500  
G28  20830980.346        7300.764         366.588          47.750  
> 2018  4 22 11 21 17.3688020  0  6                     
G 1  22936147.532       44791.692        2015.005          48.750  
G 3  21554708.455      -18046.131        -814.167          42.250  
G11  23598046.032       43303.010        2023.998          44.250  
G17  21261054.452      -49229.270       -2312.307          52.000  
G22  23109201.159       16825.209         814.906          46.500  
G28  20832817.509        7337.466         367.268          48.000  
> 2018  4 22 11 21 17.4688020  0  6                     
G 1  22938017.490       44993.206        2015.921          49.250  
G 3  21556526.169      -18127.577        -814.550          42.250  
G11  23599917.140       43505.383        2024.335          44.250  
G17  21262841.838      -49460.461       -2311.830          52.000  
G22  23111047.267       16906.769         817.027          46.500  
G28  20834656.804        7374.241         368.854          47.750  
> 2018  4 22 11 21 17.5688020  0  6                     
G 1  22939887.192       45194.777        2016.392          49.250  
G 3  21558341.603      -18208.944        -813.238          42.000  
G11  23601787.010       43707.847        2024.881          44.250  
G17  21264629.658      -49691.584       -2310.789          52.000  
G22  23112893.718       16988.366         817.116          46.250  
G28  20836495.589        7411.076         369.278          47.750  
> 2018  4 22 11 21 17.6688020  0  6                     
G 1  22941756.702       45396.431        2017.140          49.250  
G 3  21560157.496      -18290.215        -811.924          42.000  
G11  23603656.976       43910.373        2025.693          44.000  
G17  21266417.605      -49922.628       -2310.219          51.750  
G22  23114740.077       17070.064         817.275          46.250  
G28  20838333.339        7448.004         369.339          47.500  
> 2018  4 22 11 21 17.7688020  0  6                     
G 1  22943626.272       45598.103        2017.440          49.000  
G 3  21561973.904      -18371.493        -812.791          42.250  
G11  23605527.845       44112.913        2026.514          43.750  
G17  21268205.005      -50153.661       -2310.156          51.750  
G22  23116588.179       17151.763         817.127          46.750  
G28  20840174.094        7484.932         369.219          47.750  
> 2018  4 22 11 21 17.8688020  0  6                     
G 1  22945496.664       45799.788        2017.225          49.000  
G 3  21563789.049      -18452.730        -811.420          41.500  
G11  23607398.142       44315.478        2026.401          44.000  
G17  21269992.742      -50384.660       -2310.301          51.750  
