     3.02           OBSERVATION DATA    M: Mixed            RINEX VERSION / TYPE
GNSS-SDRLIB v1.1                        20180429 102425 UTC PGM / RUN BY / DATE 
                                                            MARKER NAME         
                                                            MARKER NUMBER       
                                                            MARKER TYPE         
                                                            OBSERVER / AGENCY   
GNSS-SDRLIB         GNSS-SDRLIB         1.1                 REC # / TYPE / VERS 
                                                            ANT # / TYPE        
        0.0000        0.0000        0.0000                  APPROX POSITION XYZ 
        0.0000        0.0000        0.0000                  ANTENNA: DELTA H/E/N
G    4 C1C L1C D1C S1C                                      SYS / # / OBS TYPES 
R    4 C1C L1C D1C S1C                                      SYS / # / OBS TYPES 
E    4 C1C L1C D1C S1C                                      SYS / # / OBS TYPES 
J    4 C1C L1C D1C S1C                                      SYS / # / OBS TYPES 
S    4 C1C L1C D1C S1C                                      SYS / # / OBS TYPES 
C    4 C1C L1C D1C S1C                                      SYS / # / OBS TYPES 
  1970     1     1     0     0    0.0000000     GPS         TIME OF FIRST OBS   
  1970     1     1     0     0    0.0000000     GPS         TIME OF LAST OBS    
G                                                           SYS / PHASE SHIFT   
R                                                           SYS / PHASE SHIFT   
E                                                           SYS / PHASE SHIFT   
J                                                           SYS / PHASE SHIFT   
S                                                           SYS / PHASE SHIFT   
C                                                           SYS / PHASE SHIFT   
  0                                                         GLONASS SLOT / FRQ #
 C1C    0.000 C1P    0.000 C2C    0.000 C2P    0.000        GLONASS COD/PHS/BIS 
                                                            END OF HEADER       
> 2018  4 22 11 21  6.0688020  0  1                     
G 3  20625066.345       -8483.926        -830.702          42.750  
> 2018  4 22 11 21  6.1688020  0  1                     
G 3  20626900.431       -8566.569        -830.740          42.250  
> 2018  4 22 11 21  6.0688020  0  2                     
G 1  22000412.504       22041.851        1995.281          48.750  
G 3  20625066.345       -8483.926        -830.702          42.250  
> 2018  4 22 11 21  6.1688020  0  2                     
G 1  22002300.520       22242.384        2004.115          48.750  
G 3  20626900.431       -8566.569        -830.740          42.250  
> 2018  4 22 11 21  6.0688020  0  3                     
G 1  22000412.504       22041.927        2003.760          48.750  
G 3  20625066.345       -8483.926        -830.702          42.250  
G11  22662290.695       16119.490        2028.059          44.250  
> 2018  4 22 11 21  6.1688020  0  3                     
G 1  22002300.520       22242.384        2004.115          49.000  
G 3  20626900.431       -8566.569        -830.740          42.250  
G11  22664179.248       16311.938        2012.638          44.500  
> 2018  4 22 11 21  6.2688020  0  3                     
G 1  22004170.099       22442.886        2005.394          49.000  
G 3  20628717.238       -8649.660        -830.681          42.500  
G11  22666050.190       16513.471        2014.136          44.250  
> 2018  4 22 11 21  6.3688020  0  3                     
G 1  22006040.092       22643.489        2006.167          48.750  
G 3  20630532.025       -8732.621        -830.224          42.750  
G11  22667920.201       16714.977        2015.275          44.250  
> 2018  4 22 11 21  6.4688020  0  3                     
G 1  22007910.578       22844.144        2007.187          49.000  
G 3  20632347.300       -8815.522        -828.050          42.500  
G11  22669789.861       16916.526        2016.041          44.250  
> 2018  4 22 11 21  6.5688020  0  3                     
G 1  22009780.342       23044.837        2006.751          49.000  
G 3  20634164.491       -8898.389        -828.532          42.750  
G11  22671659.108       17118.117        2015.726          44.500  
> 2018  4 22 11 21  6.6688020  0  3                     
G 1  22011650.091       23245.561        2008.395          49.000  
G 3  20635980.055       -8981.215        -828.329          42.000  
G11  22673530.055       17319.760        2017.111          44.250  
> 2018  4 22 11 21  6.7688020  0  3                     
G 1  22013520.353       23446.395        2008.763          49.000  
G 3  20637795.869       -9063.915        -825.841          42.750  
G11  22675400.305       17521.485        2017.883          44.250  
> 2018  4 22 11 21  6.8688020  0  3                     
G 1  22015390.087       23647.265        2008.304          49.000  
G 3  20639611.862       -9146.599        -826.239          42.500  
G11  22677270.101       17723.258        2017.239          44.500  
> 2018  4 22 11 21  6.9688020  0  3                     
G 1  22017259.321       23848.193        2009.523          49.000  
G 3  20641426.366       -9229.193        -826.036          42.500  
G11  22679140.402       17925.083        2018.379          44.000  
> 2018  4 22 11 21  7.0688020  0  3                     
G 1  22019129.021       24049.130        2009.524          48.750  
G 3  20643241.796       -9311.826        -825.863          42.250  
G11  22681011.157       18126.915        2018.304          44.000  
> 2018  4 22 11 21  7.1688020  0  3                     
G 1  22020998.618       24250.085        2009.053          49.000  
G 3  20645058.733       -9394.380        -825.680          42.000  
G11  22682880.837       18328.778        2018.901          44.000  
> 2018  4 22 11 21  7.2688020  0  3                     
G 1  22022868.775       24451.008        2009.037          49.000  
G 3  20646874.894       -9476.967        -825.926          42.000  
G11  22684750.817       18530.588        2017.586          44.000  
> 2018  4 22 11 21  7.3688020  0  3                     
G 1  22024738.316       24651.906        2008.550          49.000  
G 3  20648690.206       -9559.584        -826.831          42.500  
G11  22686621.230       18732.387        2017.030          44.000  
> 2018  4 22 11 21  7.4688020  0  3                     
G 1  22026608.364       24852.821        2010.571          49.250  
G 3  20650505.775       -9642.188        -825.746          42.250  
G11  22688491.413       18934.212        2019.256          44.000  
> 2018  4 22 11 21  7.5688020  0  3                     
G 1  22028478.468       25053.778        2009.632          49.000  
G 3  20652321.866       -9724.729        -825.481          42.750  
G11  22690360.393       19136.065        2018.489          44.250  
> 2018  4 22 11 21  7.6688020  0  3                     
G 1  22030348.568       25254.720        2009.372          49.000  
G 3  20654137.300       -9807.295        -826.517          42.750  
G11  22692230.496       19337.887        2018.971          44.250  
> 2018  4 22 11 21  7.7688020  0  3                     
G 1  22032219.256       25455.622        2009.710          48.750  
G 3  20655953.712       -9889.882        -825.588          42.750  
G11  22694100.205       19539.688        2018.045          44.250  
> 2018  4 22 11 21  7.8688020  0  3                     
G 1  22034089.133       25656.501        2008.201          49.000  
G 3  20657769.664       -9972.497        -827.273          42.750  
G11  22695970.030       19741.466        2016.897          44.000  
> 2018  4 22 11 21  7.9688020  0  3                     
G 1  22035959.568       25857.383        2009.100          49.000  
G 3  20659585.410      -10055.082        -825.258          43.000  
G11  22697841.626       19943.238        2017.658          44.000  
> 2018  4 22 11 21  8.0688020  0  3                     
G 1  22037829.156       26058.243        2008.461          49.000  
G 3  20661400.980      -10137.679        -826.468          42.500  
G11  22699711.521       20145.025        2017.550          44.250  
> 2018  4 22 11 21  8.1688020  0  3                     
G 1  22039698.621       26259.099        2008.824          49.000  
G 3  20663216.323      -10220.294        -825.805          42.750  
G11  22701581.204       20346.765        2017.085          44.000  
> 2018  4 22 11 21  8.2688020  0  3                     
G 1  22041567.882       26459.976        2009.470          49.000  
G 3  20665032.271      -10302.889        -824.542          42.750  
G11  22703451.746       20548.532        2018.392          44.250  
> 2018  4 22 11 21  8.3688020  0  3                     
G 1  22043437.515       26660.894        2009.399          49.000  
G 3  20666847.910      -10385.413        -824.932          43.000  
G11  22705320.695       20750.360        2018.586          44.250  
> 2018  4 22 11 21  8.4688020  0  3                     
G 1  22045306.928       26861.770        2009.029          49.000  
G 3  20668664.167      -10467.999        -825.931          42.500  
G11  22707190.263       20952.133        2017.978          44.250  
> 2018  4 22 11 21  8.5688020  0  3                     
G 1  22047177.026       27062.685        2009.676          49.250  
G 3  20670479.978      -10550.513        -824.777          42.500  
G11  22709060.454       21153.939        2018.249          44.000  
> 2018  4 22 11 21  8.6688020  0  3                     
G 1  22049046.101       27263.593        2009.192          49.000  
G 3  20672297.020      -10633.031        -825.181          42.250  
G11  22710931.184       21355.758        2018.533          44.500  
> 2018  4 22 11 21  8.7688020  0  3                     
G 1  22050915.455       27464.465        2008.640          49.000  
G 3  20674111.925      -10715.624        -826.568          42.000  
G11  22712802.395       21557.498        2017.077          44.500  
> 2018  4 22 11 21  8.8688020  0  3                     
G 1  22052785.576       27665.276        2008.688          49.000  
G 3  20675927.223      -10798.244        -825.145          41.750  
G11  22714671.787       21759.220        2017.671          44.500  
> 2018  4 22 11 21  8.9688020  0  3                     
G 1  22054655.427       27866.108        2008.190          49.000  
G 3  20677742.742      -10880.865        -826.967          42.250  
G11  22716541.914       21960.950        2017.081          44.250  
> 2018  4 22 11 21  9.0688020  0  3                     
G 1  22056525.569       28066.953        2008.119          49.000  
G 3  20679558.118      -10963.386        -824.842          42.750  
G11  22718411.330       22162.697        2016.871          44.250  
> 2018  4 22 11 21  9.1688020  0  3                     
G 1  22058395.807       28267.807        2008.203          48.750  
G 3  20681374.392      -11045.968        -825.834          43.000  
G11  22720280.470       22364.442        2016.724          44.250  
> 2018  4 22 11 21  9.2688020  0  3                     
G 1  22060265.304       28468.646        2008.109          49.000  
G 3  20683190.847      -11128.529        -826.356          42.500  
G11  22722150.859       22566.194        2017.194          44.250  
> 2018  4 22 11 21  9.3688020  0  3                     
G 1  22062134.736       28669.465        2008.764          49.000  
G 3  20685006.408      -11211.105        -825.724          42.000  
G11  22724020.611       22767.892        2016.716          44.500  
> 2018  4 22 11 21  9.4688020  0  3                     
G 1  22064004.314       28870.291        2008.221          49.250  
G 3  20686822.124      -11293.649        -825.498          41.750  
G11  22725890.923       22969.604        2017.518          44.250  
> 2018  4 22 11 21  9.5688020  0  3                     
G 1  22065874.091       29071.071        2008.140          49.000  
G 3  20688638.521      -11376.293        -825.998          41.000  
G11  22727760.787       23171.272        2017.046          44.000  
> 2018  4 22 11 21  9.6688020  0  3                     
G 1  22067743.932       29271.749        2006.781          49.000  
G 3  20690454.894      -11459.021        -827.720          41.750  
G11  22729631.221       23372.857        2015.236          44.250  
> 2018  4 22 11 21  9.7688020  0  3                     
G 1  22069613.039       29472.397        2006.009          49.000  
G 3  20692270.227      -11541.760        -827.985          43.000  
G11  22731500.968       23574.391        2014.712          44.500  
> 2018  4 22 11 21  9.8688020  0  3                     
G 1  22071482.915       29673.022        2006.487          49.000  
G 3  20694086.518      -11624.484        -828.145          43.000  
G11  22733370.682       23775.923        2015.332          44.750  
> 2018  4 22 11 21  9.9688020  0  3                     
G 1  22073352.946       29873.594        2005.898          48.500  
G 3  20695903.641      -11707.259        -828.339          42.500  
G11  22735241.562       23977.378        2014.644          44.250  
> 2018  4 22 11 21 10.0688020  0  3                     
G 1  22075222.921       30074.111        2004.858          49.000  
G 3  20697719.275      -11790.104        -829.174          42.250  
G11  22737111.834       24178.784        2014.020          44.250  
> 2018  4 22 11 21 10.1688020  0  3                     
G 1  22077093.042       30274.597        2004.731          49.000  
G 3  20699534.592      -11872.992        -829.411          42.000  
G11  22738981.101       24380.168        2014.057          44.000  
> 2018  4 22 11 21 10.2688020  0  3                     
G 1  22078962.665       30475.009        2003.808          49.000  
G 3  20701349.495      -11955.937        -829.092          42.250  
G11  22740851.037       24581.461        2012.831          44.000  
> 2018  4 22 11 21 10.3688020  0  3                     
G 1  22080832.674       30675.409        2004.346          49.250  
G 3  20703166.251      -12038.869        -828.279          43.250  
G11  22742720.822       24782.765        2013.710          44.250  
> 2018  4 22 11 21 10.4688020  0  3                     
G 1  22082702.192       30875.854        2004.098          49.000  
G 3  20704982.547      -12121.750        -828.281          43.500  
G11  22744590.301       24984.105        2014.195          44.250  
> 2018  4 22 11 21 10.5688020  0  3                     
G 1  22084571.751       31076.290        2004.967          49.250  
G 3  20706797.989      -12204.647        -829.198          42.500  
G11  22746459.117       25185.428        2013.227          44.250  
> 2018  4 22 11 21 10.6688020  0  3                     
G 1  22086441.544       31276.759        2005.253          49.250  
G 3  20708612.938      -12287.530        -827.110          41.000  
G11  22748329.757       25386.775        2014.667          44.250  
> 2018  4 22 11 21 10.7688020  0  3                     
G 1  22088311.155       31477.225        2004.849          49.000  
G 3  20710428.029      -12370.407        -829.380          42.500  
G11  22750199.623       25588.134        2013.300          44.000  
> 2018  4 22 11 21 10.8688020  0  3                     
G 1  22090181.052       31677.709        2005.177          49.250  
G 3  20712245.700      -12453.226        -828.197          43.500  
G11  22752069.543       25789.493        2013.398          44.500  
> 2018  4 22 11 21 10.9688020  0  3                     
G 1  22092050.927       31878.206        2005.022          49.250  
G 3  20714062.492      -12536.027        -828.093          42.750  
G11  22753940.321       25990.901        2013.937          44.000  
> 2018  4 22 11 21 11.0688020  0  3                     
G 1  22093921.007       32078.692        2005.058          49.250  
G 3  20715877.271      -12618.874        -828.548          42.500  
G11  22755808.882       26192.258        2013.356          44.250  
> 2018  4 22 11 21 11.1688020  0  3                     
G 1  22095790.649       32279.192        2005.409          49.250  
G 3  20717692.427      -12701.641        -826.405          42.000  
G11  22757677.537       26393.650        2013.602          43.750  
> 2018  4 22 11 21 11.2688020  0  3                     
G 1  22097659.731       32479.709        2005.447          49.000  
G 3  20719508.535      -12784.440        -827.357          42.500  
G11  22759547.729       26595.058        2014.868          43.750  
> 2018  4 22 11 21 11.3688020  0  3                     
G 1  22099529.271       32680.212        2005.211          49.000  
G 3  20721324.985      -12867.243        -828.586          42.500  
G11  22761416.484       26796.456        2014.141          44.000  
> 2018  4 22 11 21 11.4688020  0  3                     
G 1  22101399.248       32880.687        2004.706          49.000  
G 3  20723140.324      -12950.048        -828.878          42.250  
G11  22763286.237       26997.822        2013.407          44.000  
> 2018  4 22 11 21 11.5688020  0  3                     
G 1  22103269.697       33081.173        2004.881          48.750  
G 3  20724955.491      -13032.834        -828.352          42.750  
G11  22765156.644       27199.188        2014.204          43.750  
> 2018  4 22 11 21 11.6688020  0  3                     
G 1  22105138.813       33281.667        2005.032          49.000  
G 3  20726771.383      -13115.613        -828.029          42.750  
G11  22767025.949       27400.563        2014.309          44.000  
> 2018  4 22 11 21 11.7688020  0  3                     
G 1  22107008.051       33482.169        2005.296          49.000  
G 3  20728588.433      -13198.366        -827.797          42.500  
G11  22768896.198       27601.969        2014.464          44.000  
> 2018  4 22 11 21 11.8688020  0  3                     
G 1  22108877.763       33682.677        2005.724          49.250  
G 3  20730403.200      -13281.141        -826.931          42.500  
G11  22770766.065       27803.361        2014.714          44.000  
> 2018  4 22 11 21 11.9688020  0  3                     
G 1  22110747.526       33883.242        2006.162          49.000  
G 3  20732218.952      -13363.824        -826.244          43.000  
G11  22772635.816       28004.825        2015.221          44.250  
> 2018  4 22 11 21 12.0688020  0  3                     
G 1  22112617.552       34083.746        2010.894          49.000  
G 3  20734035.866      -13446.463        -825.936          42.500  
G11  22774506.541       28206.318        2016.502          44.000  
> 2018  4 22 11 21 12.1688020  0  3                     
G 1  22114487.485       34284.582        2014.517          49.250  
G 3  20735851.151      -13528.939        -825.357          42.500  
G11  22776376.749       28407.949        2016.683          44.000  
> 2018  4 22 11 21 12.2688020  0  3                     
G 1  22116357.744       34485.347        2007.794          49.000  
G 3  20737667.946      -13611.457        -825.422          42.500  
G11  22778247.277       28609.581        2015.680          44.000  
> 2018  4 22 11 21 12.3688020  0  3                     
G 1  22118228.358       34686.205        2009.249          49.000  
G 3  20739483.863      -13693.831        -822.996          42.500  
G11  22780117.531       28811.312        2017.035          44.000  
> 2018  4 22 11 21 12.4688020  0  3                     
G 1  22120097.461       34887.103        2008.637          49.000  
G 3  20741298.973      -13776.157        -822.071          42.500  
G11  22781987.283       29013.120        2018.862          44.000  
> 2018  4 22 11 21 12.5688020  0  3                     
G 1  22121966.776       35088.076        2009.695          49.000  
G 3  20743114.226      -13858.420        -822.250          42.500  
G11  22783856.662       29214.966        2018.951          44.000  
> 2018  4 22 11 21 12.6688020  0  3                     
G 1  22123836.505       35289.080        2010.731          49.000  
G 3  20744930.439      -13940.608        -821.645          42.250  
G11  22785726.030       29416.868        2019.504          44.000  
> 2018  4 22 11 21 12.7688020  0  3                     
G 1  22125706.093       35490.188        2011.218          49.000  
G 3  20746746.324      -14022.739        -820.950          42.250  
G11  22787596.149       29618.834        2019.886          43.750  
> 2018  4 22 11 21 12.8688020  0  3                     
G 1  22127576.576       35691.466        2013.608          48.750  
G 3  20748562.372      -14104.657        -817.654          42.500  
G11  22789465.073       29821.011        2022.862          43.750  
> 2018  4 22 11 21 12.9688020  0  3                     
G 1  22129446.869       35892.947        2015.036          49.000  
G 3  20750379.070      -14186.380        -816.425          42.250  
G11  22791336.096       30023.361        2024.319          43.750  
> 2018  4 22 11 21 13.0688020  0  3                     
G 1  22131316.845       36094.594        2017.180          49.250  
G 3  20752194.270      -14267.945        -814.720          42.250  
G11  22793206.570       30225.880        2025.698          44.000  
> 2018  4 22 11 21 13.1688020  0  3                     
G 1  22133186.577       36296.337        2017.734          49.250  
G 3  20754011.384      -14349.397        -814.097          42.250  
G11  22795076.603       30428.527        2026.484          44.000  
> 2018  4 22 11 21 13.2688020  0  3                     
G 1  22135056.832       36498.131        2018.492          49.250  
G 3  20755827.721      -14430.778        -813.128          43.000  
G11  22796946.985       30631.197        2026.587          43.750  
> 2018  4 22 11 21 13.3688020  0  3                     
G 1  22136926.388       36699.942        2017.687          49.250  
G 3  20757643.527      -14512.133        -814.165          42.500  
G11  22798817.203       30833.895        2025.786          44.000  
> 2018  4 22 11 21 13.4688020  0  3                     
G 1  22138795.946       36901.704        2016.988          49.000  
G 3  20759460.153      -14593.546        -814.906          42.500  
G11  22800686.121       31036.535        2025.048          44.000  
> 2018  4 22 11 21 13.5688020  0  3                     
G 1  22140666.469       37103.318        2016.338          49.000  
G 3  20761276.080      -14675.092        -815.201          42.250  
G11  22802556.693       31239.043        2025.386          44.000  
> 2018  4 22 11 21 13.6688020  0  3                     
G 1  22142536.481       37304.898        2015.595          49.000  
G 3  20763091.786      -14756.685        -816.136          42.000  
G11  22804427.090       31441.494        2024.214          44.250  
> 2018  4 22 11 21 13.7688020  0  3                     
G 1  22144405.972       37506.410        2015.604          48.750  
G 3  20764907.589      -14838.328        -816.906          42.750  
G11  22806296.714       31643.920        2024.696          44.000  
> 2018  4 22 11 21 13.8688020  0  3                     
G 1  22146276.030       37707.896        2014.973          49.250  
G 3  20766723.345      -14919.991        -816.439          43.000  
G11  22808167.058       31846.259        2023.835          43.750  
> 2018  4 22 11 21 13.9688020  0  3                     
G 1  22148146.057       37909.356        2014.515          49.000  
G 3  20768539.147      -15001.674        -817.445          42.250  
G11  22810037.564       32048.620        2024.110          44.250  
> 2018  4 22 11 21 14.0688020  0  3                     
G 1  22150015.498       38110.766        2013.949          49.250  
G 3  20770355.829      -15083.425        -817.242          43.000  
G11  22811907.922       32250.907        2023.000          44.000  
> 2018  4 22 11 21 14.1688020  0  3                     
G 1  22151885.339       38312.170        2014.262          49.000  
G 3  20772172.414      -15165.142        -817.760          42.500  
G11  22813777.049       32453.196        2023.506          43.750  
> 2018  4 22 11 21 14.2688020  0  3                     
G 1  22153755.201       38513.600        2014.404          49.250  
G 3  20773988.208      -15246.836        -816.399          42.250  
G11  22815646.602       32655.498        2022.717          43.750  
> 2018  4 22 11 21 14.3688020  0  3                     
G 1  22155624.909       38714.962        2014.026          49.000  
G 3  20775803.599      -15328.597        -817.764          42.250  
G11  22817516.897       32857.753        2022.629          43.750  
> 2018  4 22 11 21 14.4688020  0  3                     
G 1  22157494.803       38916.353        2013.594          49.250  
G 3  20777619.420      -15410.323        -817.878          42.250  
G11  22819386.317       33060.019        2022.522          44.000  
> 2018  4 22 11 21 14.5688020  0  3                     
G 1  22159364.344       39117.707        2013.592          49.000  
G 3  20779434.746      -15492.085        -817.515          42.250  
G11  22821256.191       33262.255        2022.250          44.000  
> 2018  4 22 11 21 14.6688020  0  3                     
G 1  22161234.727       39318.981        2012.970          49.250  
G 3  20781250.695      -15573.927        -818.749          42.750  
G11  22823126.495       33464.406        2022.838          43.750  
> 2018  4 22 11 21 14.7688020  0  3                     
G 1  22163104.243       39520.247        2012.385          49.000  
G 3  20783067.898      -15655.753        -819.314          42.250  
G11  22824998.456       33666.549        2020.925          43.750  
> 2018  4 22 11 21 14.8688020  0  3                     
G 1  22164974.764       39721.470        2011.458          49.000  
G 3  20784883.776      -15737.601        -819.405          42.250  
G11  22826868.442       33868.653        2020.213          44.000  
> 2018  4 22 11 21 14.9688020  0  3                     
G 1  22166845.146       39922.686        2012.643          49.250  
G 3  20786699.636      -15819.490        -818.557          42.250  
G11  22828738.957       34070.765        2022.760          44.000  
> 2018  4 22 11 21 15.0688020  0  3                     
G 1  22168714.841       40123.997        2012.797          49.000  
G 3  20788515.331      -15901.270        -818.114          42.250  
G11  22830608.743       34272.938        2021.826          43.750  
> 2018  4 22 11 21 15.1688020  0  3                     
G 1  22170584.529       40325.329        2013.157          49.250  
G 3  20790330.464      -15983.008        -817.830          42.250  
G11  22832478.840       34475.153        2022.099          44.250  
> 2018  4 22 11 21 15.2688020  0  3                     
G 1  22172455.155       40526.732        2014.753          49.250  
G 3  20792145.419      -16064.693        -816.227          42.250  
G11  22834349.407       34677.443        2022.406          44.000  
> 2018  4 22 11 21 15.3688020  0  3                     
G 1  22174325.026       40728.198        2015.144          49.250  
G 3  20793963.197      -16146.289        -815.462          42.250  
G11  22836218.760       34879.769        2023.776          43.750  
> 2018  4 22 11 21 15.4688020  0  3                     
G 1  22176194.787       40929.697        2015.064          49.250  
G 3  20795780.021      -16227.854        -815.602          42.250  
G11  22838089.368       35082.153        2023.502          43.500  
> 2018  4 22 11 21 15.5688020  0  3                     
G 1  22178065.106       41131.193        2015.417          48.750  
G 3  20797596.094      -16309.424        -815.753          42.250  
G11  22839959.938       35284.522        2022.910          44.250  
> 2018  4 22 11 21 15.6688020  0  3                     
G 1  22179935.236       41332.702        2015.149          49.000  
G 3  20799412.110      -16390.955        -815.759          42.250  
G11  22841830.662       35486.909        2023.174          44.000  
> 2018  4 22 11 21 15.7688020  0  3                     
G 1  22181805.284       41534.224        2015.610          49.250  
G 3  20801227.706      -16472.480        -814.866          42.500  
G11  22843701.032       35689.304        2024.745          44.000  
> 2018  4 22 11 21 15.8688020  0  3                     
G 1  22183675.152       41735.717        2015.842          49.000  
G 3  20803042.313      -16554.025        -815.495          42.250  
G11  22845570.641       35891.682        2024.074          44.000  
> 2018  4 22 11 21 15.9688020  0  3                     
G 1  22185544.832       41937.164        2014.500          49.000  
G 3  20804859.885      -16635.608        -815.924          42.000  
G11  22847440.492       36094.017        2023.406          44.000  
> 2018  4 22 11 21 16.0688020  0  3                     
G 1  22187415.176       42138.595        2014.204          49.250  
G 3  20806676.200      -16717.201        -815.705          42.000  
G11  22849310.005       36296.326        2023.486          44.000  
> 2018  4 22 11 21 16.1688020  0  3                     
G 1  22189284.978       42340.050        2014.948          48.750  
G 3  20808493.134      -16798.768        -815.789          42.250  
G11  22851179.964       36498.660        2023.681          44.250  
> 2018  4 22 11 21 16.2688020  0  3                     
G 1  22191154.264       42541.533        2014.289          49.000  
G 3  20810308.762      -16880.297        -815.462          42.250  
G11  22853049.953       36701.020        2023.174          44.250  
> 2018  4 22 11 21 16.3688020  0  3                     
G 1  22193023.745       42742.982        2014.671          49.000  
G 3  20812123.876      -16961.873        -815.043          42.250  
G11  22854919.920       36903.342        2023.631          44.250  
> 2018  4 22 11 21 16.4688020  0  3                     
G 1  22194893.496       42944.368        2013.817          49.000  
G 3  20813939.738      -17043.486        -816.376          42.250  
G11  22856790.082       37105.595        2021.298          44.250  
> 2018  4 22 11 21 16.5688020  0  3                     
G 1  22196763.891       43145.706        2013.311          49.000  
G 3  20815755.399      -17125.168        -817.328          42.000  
G11  22858660.814       37307.817        2021.307          44.250  
> 2018  4 22 11 21 16.6688020  0  3                     
G 1  22198632.751       43347.018        2013.200          49.000  
G 3  20817571.505      -17206.849        -817.431          42.250  
G11  22860531.484       37509.998        2022.541          44.250  
> 2018  4 22 11 21 16.7688020  0  3                     
G 1  22200502.803       43548.312        2013.911          49.000  
G 3  20819388.370      -17288.539        -817.002          42.500  
G11  22862401.251       37712.184        2022.583          43.750  
> 2018  4 22 11 21 16.8688020  0  3                     
G 1  22202372.672       43749.634        2012.906          49.000  
G 3  20821202.583      -17370.181        -818.551          41.750  
G11  22864271.289       37914.368        2021.859          44.000  
> 2018  4 22 11 21 16.9688020  0  3                     
G 1  22204242.769       43950.937        2013.028          49.250  
G 3  20823018.044      -17451.881        -816.629          42.000  
G11  22866140.527       38116.539        2021.677          44.250  
> 2018  4 22 11 21 17.0688020  0  3                     
G 1  22206112.946       44152.204        2013.232          49.250  
G 3  20824833.685      -17533.587        -817.576          42.250  
G11  22868010.856       38318.683        2021.296          44.250  
> 2018  4 22 11 21 17.1688020  0  3                     
G 1  22207982.941       44353.491        2013.987          49.250  
G 3  20826649.115      -17615.257        -816.822          42.000  
G11  22869881.149       38520.853        2022.611          44.000  
> 2018  4 22 11 21 17.2688020  0  3                     
G 1  22209852.835       44554.867        2014.649          49.250  
G 3  20828465.647      -17696.841        -815.844          42.000  
G11  22871750.895       38723.090        2021.807          44.000  
> 2018  4 22 11 21 17.3688020  0  3                     
G 1  22211722.329       44756.316        2015.265          49.000  
G 3  20830283.328      -17778.347        -814.211          42.000  
G11  22873620.841       38925.409        2023.938          44.000  
> 2018  4 22 11 21 17.4688020  0  3                     
G 1  22213592.252       44957.826        2015.456          49.250  
G 3  20832101.054      -17859.794        -814.566          42.000  
G11  22875491.953       39127.784        2024.434          44.250  
> 2018  4 22 11 21 17.5688020  0  3                     
G 1  22215462.042       45159.403        2016.629          49.250  
G 3  20833916.498      -17941.158        -813.305          42.000  
G11  22877361.822       39330.249        2024.785          44.000  
> 2018  4 22 11 21 17.6688020  0  3                     
G 1  22217331.574       45361.059        2017.182          49.000  
G 3  20835732.324      -18022.426        -811.779          42.000  
G11  22879231.787       39532.776        2025.577          44.000  
> 2018  4 22 11 21 17.7688020  0  3                     
G 1  22219201.152       45562.729        2017.143          49.250  
G 3  20837548.724      -18103.705        -812.890          42.000  
G11  22881102.655       39735.317        2026.329          44.000  
> 2018  4 22 11 21 17.8688020  0  3                     
G 1  22221071.553       45764.415        2017.233          49.000  
G 3  20839363.859      -18184.939        -811.474          42.000  
G11  22882972.981       39937.883        2026.294          44.000  
> 2018  4 22 11 21 17.9688020  0  3                     
G 1  22222941.605       45966.132        2017.510          49.000  
G 3  20841180.545      -18266.158        -812.231          42.000  
G11  22884843.063       40140.457        2025.854          44.250  
> 2018  4 22 11 21 18.0688020  0  3                     
G 1  22224812.119       46167.821        2016.516          49.000  
G 3  20842997.505      -18347.379        -812.951          42.000  
G11  22886711.409       40342.958        1975.951          44.000  
> 2018  4 22 11 21 18.4688020  0  3                     
G 1  22232290.699       46974.398        2014.926          49.000  
G 3  20850259.482      -18672.399        -812.695          42.000  
G11  22894190.448       41153.099        2023.962          44.250  
> 2018  4 22 11 21 18.5688020  0  3                     
G 1  22234160.186       47175.938        2014.973          49.000  
G 3  20852074.566      -18753.756        -814.258          41.250  
G11  22896062.075       41355.509        2023.803          43.750  
> 2018  4 22 11 21 18.6688020  0  3                     
G 1  22236030.853       47377.368        2013.505          48.750  
G 3  20853891.314      -18835.191        -815.322          42.000  
G11  22897932.641       41557.798        2022.794          43.750  
> 2018  4 22 11 21 18.7688020  0  3                     
G 1  22237900.351       47578.724        2014.186          49.000  
G 3  20855708.674      -18916.729        -815.338          42.250  
G11  22899802.547       41760.022        2021.795          43.750  
> 2018  4 22 11 21 18.8688020  0  3                     
G 1  22239770.463       47780.058        2013.420          49.000  
G 3  20857525.297      -18998.274        -816.679          42.250  
G11  22901672.168       41962.235        2022.193          43.750  
> 2018  4 22 11 21 18.9688020  0  3                     
G 1  22241640.251       47981.358        2012.634          49.000  
G 3  20859341.518      -19079.843        -815.277          41.250  
G11  22903542.093       42164.391        2021.887          43.500  
> 2018  4 22 11 21 19.0688020  0  3                     
G 1  22243510.269       48182.600        2012.472          48.750  
G 3  20861156.980      -19161.450        -815.780          41.750  
G11  22905411.827       42366.506        2019.884          43.500  
> 2018  4 22 11 21 19.1688020  0  3                     
G 1  22245380.331       48383.779        2011.340          49.000  
G 3  20862972.005      -19243.125        -817.515          41.250  
G11  22907280.713       42568.554        2020.999          43.750  
> 2018  4 22 11 21 19.2688020  0  3                     
G 1  22247249.998       48584.925        2011.439          49.000  
G 3  20864787.139      -19324.845        -817.623          42.250  
G11  22909151.049       42770.568        2020.468          43.750  
> 2018  4 22 11 21 19.3688020  0  3                     
G 1  22249119.615       48786.079        2012.443          48.750  
G 3  20866603.369      -19406.520        -817.329          42.250  
G11  22911020.894       42972.587        2020.396          43.750  
> 2018  4 22 11 21 19.4688020  0  3                     
G 1  22250989.426       48987.336        2012.991          49.000  
G 3  20868420.887      -19488.099        -815.726          42.000  
G11  22912891.485       43174.726        2022.008          43.750  
> 2018  4 22 11 21 19.5688020  0  3                     
G 1  22252859.144       49188.652        2013.830          49.000  
G 3  20870237.498      -19569.609        -816.279          41.000  
G11  22914760.858       43376.908        2022.126          44.000  
> 2018  4 22 11 21 19.6688020  0  3                     
G 1  22254728.895       49390.111        2014.788          48.750  
G 3  20872053.001      -19650.981        -813.545          41.250  
G11  22916631.300       43579.233        2024.259          43.750  
> 2018  4 22 11 21 19.7688020  0  3                     
G 1  22256598.218       49591.567        2014.860          48.750  
G 3  20873868.790      -19732.352        -813.350          42.000  
G11  22918500.750       43781.568        2023.183          43.750  
> 2018  4 22 11 21 19.8688020  0  3                     
G 1  22258468.753       49793.105        2015.196          48.750  
G 3  20875684.480      -19813.640        -813.000          41.750  
G11  22920372.238       43983.953        2024.030          44.250  
> 2018  4 22 11 21 19.9688020  0  3                     
G 1  22260338.784       49994.660        2015.721          49.000  
G 3  20877500.404      -19894.894        -813.029          41.750  
G11  22922241.875       44186.380        2025.034          43.750  
> 2018  4 22 11 21 20.0688020  0  3                     
G 1  22262208.716       50196.178        2014.951          49.000  
G 3  20879317.591      -19976.175        -813.605          42.000  
G11  22924112.697       44388.772        2023.649          44.000  
> 2018  4 22 11 21 20.1688020  0  3                     
G 1  22264078.346       50397.704        2014.957          49.000  
G 3  20881134.384      -20057.444        -814.342          41.500  
G11  22925982.820       44591.157        2024.521          44.000  
> 2018  4 22 11 21 20.2688020  0  3                     
G 1  22265948.948       50599.187        2014.902          48.250  
G 3  20882949.505      -20138.752        -812.895          42.000  
G11  22927853.308       44793.506        2024.089          43.750  
> 2018  4 22 11 21 20.3688020  0  3                     
G 1  22267818.518       50800.643        2014.715          49.000  
G 3  20884766.355      -20220.118        -814.313          41.750  
G11  22929722.647       44995.836        2022.945          43.500  
> 2018  4 22 11 21 20.4688020  0  3                     
G 1  22269687.399       51002.079        2014.266          49.000  
G 3  20886582.276      -20301.447        -813.162          41.750  
G11  22931592.811       45198.134        2023.325          44.250  
> 2018  4 22 11 21 20.5688020  0  3                     
G 1  22271557.823       51203.478        2013.794          48.750  
G 3  20888400.394      -20382.814        -814.370          41.750  
G11  22933463.046       45400.402        2022.531          44.000  
> 2018  4 22 11 21 20.6688020  0  3                     
G 1  22273427.572       51404.837        2013.550          48.750  
G 3  20890217.392      -20464.214        -814.415          41.750  
G11  22935333.312       45602.625        2022.253          44.000  
> 2018  4 22 11 21 20.7688020  0  3                     
G 1  22275297.306       51606.084        2012.014          48.750  
G 3  20892032.721      -20545.739        -816.301          41.500  
G11  22937202.665       45804.747        2022.540          43.750  
> 2018  4 22 11 21 20.8688020  0  3                     
G 1  22277167.607       51807.413        2013.278          49.000  
G 3  20893849.144      -20627.160        -814.050          42.000  
G11  22939072.455       46006.928        2022.483          43.750  
> 2018  4 22 11 21 20.9688020  0  3                     
G 1  22279037.934       52008.773        2014.139          48.750  
G 3  20895664.785      -20708.582        -814.840          42.000  
G11  22940942.557       46209.159        2022.561          43.750  
> 2018  4 22 11 21 21.0688020  0  3                     
G 1  22280907.726       52210.213        2015.302          49.000  
G 3  20897480.042      -20789.879        -812.309          41.500  
G11  22942812.909       46411.457        2023.866          43.500  
> 2018  4 22 11 21 21.1688020  0  3                     
G 1  22282777.157       52411.694        2015.469          48.750  
G 3  20899296.759      -20871.159        -813.000          41.750  
G11  22944683.926       46613.805        2024.054          43.750  
> 2018  4 22 11 21 21.2688020  0  3                     
G 1  22284647.810       52613.253        2016.271          48.500  
G 3  20901112.221      -20952.325        -811.243          41.500  
G11  22946553.101       46816.239        2024.847          43.500  
> 2018  4 22 11 21 21.3688020  0  3                     
G 1  22286517.834       52814.851        2016.154          48.750  
G 3  20902928.869      -21033.451        -811.009          41.500  
G11  22948423.786       47018.700        2025.007          43.750  
> 2018  4 22 11 21 21.4688020  0  3                     
G 1  22288387.613       53016.480        2016.386          48.750  
G 3  20904745.352      -21114.550        -811.189          41.000  
G11  22950292.825       47221.195        2025.770          43.750  
> 2018  4 22 11 21 21.5688020  0  3                     
G 1  22290257.637       53218.157        2017.020          48.750  
G 3  20906560.791      -21195.602        -811.402          41.750  
G11  22952162.930       47423.731        2025.980          43.750  
> 2018  4 22 11 21 21.6688020  0  3                     
G 1  22292127.261       53419.897        2017.176          48.750  
G 3  20908377.386      -21276.578        -809.784          41.750  
G11  22954034.439       47626.333        2026.494          43.750  
> 2018  4 22 11 21 21.7688020  0  3                     
G 1  22293997.361       53621.616        2017.493          48.500  
G 3  20910192.320      -21357.545        -809.207          41.500  
G11  22955903.963       47828.918        2025.524          43.750  
> 2018  4 22 11 21 21.8688020  0  3                     
G 1  22295867.935       53823.359        2017.737          48.750  
G 3  20912008.422      -21438.517        -808.933          41.500  
G11  22957774.059       48031.526        2026.448          43.500  
> 2018  4 22 11 21 21.9688020  0  3                     
G 1  22297737.459       54025.076        2017.414          48.750  
G 3  20913824.917      -21519.517        -810.267          41.750  
G11  22959643.770       48234.095        2026.443          43.750  
> 2018  4 22 11 21 22.0688020  0  3                     
G 1  22299607.564       54226.821        2018.290          49.000  
G 3  20915641.424      -21600.471        -810.656          42.000  
G11  22961514.321       48436.711        2026.736          43.750  
> 2018  4 22 11 21 22.1688020  0  3                     
G 1  22301477.990       54428.547        2017.248          49.000  
G 3  20917457.601      -21681.418        -810.307          41.750  
G11  22963384.610       48639.295        2026.193          43.500  
> 2018  4 22 11 21 22.2688020  0  3                     
G 1  22303348.089       54630.285        2017.497          48.750  
G 3  20919273.441      -21762.381        -810.156          41.250  
G11  22965254.918       48841.893        2026.629          43.500  
> 2018  4 22 11 21 22.3688020  0  3                     
G 1  22305218.341       54832.002        2017.677          48.750  
G 3  20921089.325      -21843.329        -809.656          41.250  
G11  22967124.844       49044.460        2026.635          43.250  
> 2018  4 22 11 21 22.4688020  0  3                     
G 1  22307087.802       55033.659        2016.585          48.750  
G 3  20922904.570      -21924.345        -810.496          40.750  
G11  22968994.055       49246.993        2025.289          43.250  
> 2018  4 22 11 21 22.5688020  0  3                     
G 1  22308957.913       55235.258        2016.142          48.500  
G 3  20924720.472      -22005.401        -810.614          41.000  
G11  22970865.265       49449.445        2025.034          43.500  
> 2018  4 22 11 21 22.6688020  0  3                     
G 1  22310827.431       55436.837        2016.146          48.750  
G 3  20926537.219      -22086.472        -809.937          41.250  
G11  22972734.597       49651.890        2025.712          43.500  
> 2018  4 22 11 21 22.7688020  0  3                     
G 1  22312697.798       55638.377        2015.241          48.750  
G 3  20928353.129      -22167.581        -811.871          41.250  
G11  22974605.059       49854.305        2024.299          43.750  
> 2018  4 22 11 21 22.8688020  0  3                     
G 1  22314567.643       55839.944        2016.151          48.500  
G 3  20930169.194      -22248.675        -811.250          41.500  
G11  22976474.740       50056.721        2024.884          43.500  
> 2018  4 22 11 21 22.9688020  0  3                     
G 1  22316437.956       56041.493        2016.459          48.750  
G 3  20931984.346      -22329.751        -809.472          41.500  
G11  22978345.046       50259.123        2025.935          43.250  
> 2018  4 22 11 21 23.0688020  0  3                     
G 1  22318307.680       56243.097        2016.639          48.750  
G 3  20933800.503      -22410.796        -808.744          41.250  
G11  22980214.952       50461.603        2026.223          43.250  
> 2018  4 22 11 21 23.1688020  0  3                     
G 1  22320177.911       56444.769        2016.536          48.500  
G 3  20935616.375      -22491.770        -810.485          41.750  
G11  22982087.037       50664.097        2024.792          43.750  
> 2018  4 22 11 21 23.2688020  0  3                     
G 1  22322047.331       56646.446        2017.139          48.500  
G 3  20937433.226      -22572.707        -809.259          42.000  
G11  22983957.706       50866.650        2026.130          43.750  
> 2018  4 22 11 21 23.3688020  0  3                     
G 1  22323916.904       56848.205        2017.591          48.750  
G 3  20939249.664      -22653.597        -808.714          41.500  
G11  22985827.699       51069.266        2026.678          43.500  
> 2018  4 22 11 21 23.4688020  0  3                     
G 1  22325787.423       57049.963        2017.619          48.750  
G 3  20941066.820      -22734.442        -808.670          41.500  
G11  22987698.108       51271.885        2026.810          43.500  
> 2018  4 22 11 21 23.5688020  0  3                     
G 1  22327657.086       57251.736        2018.616          49.000  
G 3  20942881.503      -22815.254        -807.519          40.750  
G11  22989567.421       51474.520        2026.635          43.500  
> 2018  4 22 11 21 23.6688020  0  3                     
G 1  22329527.006       57453.537        2018.028          48.750  
G 3  20944697.276      -22896.061        -808.450          40.750  
G11  22991437.507       51677.180        2026.336          43.000  
> 2018  4 22 11 21 23.7688020  0  3                     
G 1  22331396.804       57655.343        2017.610          48.750  
G 3  20946511.829      -22976.868        -808.254          40.750  
G11  22993308.186       51879.848        2026.381          43.250  
> 2018  4 22 11 21 23.8688020  0  3                     
G 1  22333266.993       57857.148        2018.495          48.750  
G 3  20948328.082      -23057.644        -808.194          40.250  
G11  22995177.437       52082.510        2027.662          43.250  
> 2018  4 22 11 21 23.9688020  0  3                     
G 1  22335137.287       58058.994        2018.774          48.750  
G 3  20950144.744      -23138.402        -809.121          40.750  
G11  22997046.461       52285.191        2026.665          43.250  
> 2018  4 22 11 21 24.0688020  0  3                     
G 1  22337007.100       58260.865        2019.206          48.750  
G 3  20951960.809      -23219.101        -806.198          40.750  
G11  22998915.427       52487.887        2008.894          43.000  
> 2018  4 22 11 21 24.1688020  0  3                     
G 1  22338877.747       58462.768        2019.102          48.750  
G 3  20953776.532      -23299.770        -807.010          40.750  
G11  23000785.691       52690.666        2019.980          43.000  
> 2018  4 22 11 21 24.2688020  0  3                     
G 1  22340747.036       58664.649        2019.326          48.750  
G 3  20955592.961      -23380.460        -806.714          41.250  
G11  23002656.213       52893.440        2028.090          43.000  
> 2018  4 22 11 21 24.3688020  0  3                     
G 1  22342616.713       58866.539        2019.240          48.750  
G 3  20957409.838      -23461.138        -807.175          41.250  
G11  23004526.360       53096.185        2028.607          43.250  
> 2018  4 22 11 21 24.4688020  0  3                     
G 1  22344487.426       59068.395        2018.362          48.750  
G 3  20959226.967      -23541.845        -807.931          41.250  
G11  23006396.419       53298.914        2028.156          43.250  
> 2018  4 22 11 21 24.5688020  0  3                     
G 1  22346357.434       59270.219        2018.227          49.000  
G 3  20961042.651      -23622.582        -807.799          41.500  
G11  23008266.397       53501.575        2026.746          43.250  
> 2018  4 22 11 21 24.6688020  0  3                     
G 1  22348226.999       59472.032        2018.417          49.000  
G 3  20962858.754      -23703.298        -807.842          41.250  
G11  23010138.102       53704.250        2026.218          43.250  
> 2018  4 22 11 21 24.7688020  0  3                     
G 1  22350096.590       59673.818        2017.774          49.000  
G 3  20964674.352      -23784.059        -807.211          41.500  
G11  23012007.448       53906.892        2026.662          43.500  
> 2018  4 22 11 21 24.8688020  0  3                     
G 1  22351966.243       59875.567        2017.148          48.750  
G 3  20966489.747      -23864.852        -808.090          41.250  
G11  23013877.484       54109.496        2026.186          43.500  
> 2018  4 22 11 21 24.9688020  0  3                     
G 1  22353836.420       60077.304        2017.457          49.000  
G 3  20968305.850      -23945.647        -807.588          41.250  
G11  23015747.182       54312.078        2025.803          43.500  
> 2018  4 22 11 21 25.0688020  0  3                     
G 1  22355706.793       60279.049        2017.970          49.000  
G 3  20970122.584      -24026.439        -807.506          40.750  
G11  23017616.502       54514.676        2026.169          43.000  
> 2018  4 22 11 21 25.1688020  0  3                     
G 1  22357576.785       60480.776        2017.011          48.750  
G 3  20971940.476      -24107.231        -808.764          41.000  
G11  23019487.452       54717.272        2025.557          43.250  
> 2018  4 22 11 21 25.2688020  0  3                     
G 1  22359446.627       60682.439        2015.650          48.750  
G 3  20973756.684      -24188.076        -808.950          41.250  
G11  23021357.228       54919.790        2025.201          43.000  
> 2018  4 22 11 21 25.3688020  0  3                     
G 1  22361317.091       60884.076        2016.462          49.000  
G 3  20975571.060      -24268.954        -808.225          40.500  
G11  23023227.005       55122.276        2025.933          43.250  
> 2018  4 22 11 21 25.4688020  0  3                     
G 1  22363187.819       61085.696        2016.928          49.000  
G 3  20977387.295      -24349.839        -809.590          40.500  
G11  23025097.439       55324.752        2025.565          43.000  
> 2018  4 22 11 21 25.5688020  0  3                     
G 1  22365057.672       61287.282        2015.988          49.000  
G 3  20979203.396      -24430.761        -810.026          40.500  
G11  23026967.994       55527.199        2023.677          43.000  
> 2018  4 22 11 21 25.6688020  0  3                     
G 1  22366927.308       61488.888        2016.177          49.000  
G 3  20981019.158      -24511.632        -807.887          40.750  
G11  23028838.511       55729.644        2024.524          43.500  
> 2018  4 22 11 21 25.7688020  0  3                     
G 1  22368797.683       61690.398        2014.695          49.000  
G 3  20982834.452      -24592.602        -809.723          40.250  
G11  23030708.414       55932.022        2022.947          43.000  
> 2018  4 22 11 21 25.8688020  0  3                     
G 1  22370666.697       61891.879        2015.043          49.000  
G 3  20984649.765      -24673.612        -810.559          39.750  
G11  23032578.240       56134.348        2024.187          42.750  
> 2018  4 22 11 21 25.9688020  0  3                     
G 1  22372536.327       62093.359        2014.151          49.000  
G 3  20986466.092      -24754.597        -809.119          40.000  
G11  23034447.845       56336.688        2022.930          43.250  
> 2018  4 22 11 21 26.0688020  0  3                     
G 1  22374406.174       62294.945        2016.932          48.750  
G 3  20988283.147      -24835.483        -807.432          40.250  
G11  23036318.756       56539.100        2024.918          42.750  
> 2018  4 22 11 21 26.1688020  0  3                     
G 1  22376275.626       62496.585        2016.549          49.000  
G 3  20990098.558      -24916.313        -808.443          40.000  
G11  23038189.311       56741.630        2026.084          43.000  
> 2018  4 22 11 21 26.2688020  0  3                     
G 1  22378145.505       62698.327        2018.209          49.000  
G 3  20991912.629      -24997.025        -806.604          39.750  
G11  23040059.918       56944.206        2026.191          42.750  
> 2018  4 22 11 21 26.3688020  0  3                     
G 1  22380015.623       62900.136        2018.472          49.000  
G 3  20993729.547      -25077.665        -805.970          40.250  
G11  23041928.462       57146.880        2026.533          43.250  
> 2018  4 22 11 21 26.4688020  0  3                     
G 1  22381885.563       63101.965        2018.473          49.000  
G 3  20995544.646      -25158.298        -806.406          40.500  
G11  23043798.004       57349.549        2026.135          42.750  
> 2018  4 22 11 21 26.5688020  0  3                     
G 1  22383755.836       63303.733        2016.999          49.000  
G 3  20997359.795      -25238.965        -806.757          39.750  
G11  23045668.524       57552.183        2026.035          43.250  
> 2018  4 22 11 21 26.6688020  0  3                     
G 1  22385625.844       63505.476        2017.429          49.000  
G 3  20999176.106      -25319.665        -806.914          40.250  
G11  23047539.150       57754.767        2026.088          43.000  
> 2018  4 22 11 21 26.7688020  0  3                     
G 1  22387495.825       63707.174        2016.489          48.750  
G 3  21000992.690      -25400.384        -808.258          40.000  
G11  23049408.706       57957.325        2024.856          43.250  
> 2018  4 22 11 21 26.8688020  0  3                     
G 1  22389365.391       63908.863        2016.530          49.000  
G 3  21002810.281      -25481.121        -808.409          40.000  
G11  23051278.685       58159.855        2025.095          43.000  
> 2018  4 22 11 21 26.9688020  0  3                     
G 1  22391235.357       64110.539        2016.673          49.000  
G 3  21004627.298      -25561.868        -807.360          40.000  
G11  23053148.763       58362.385        2025.104          43.000  
> 2018  4 22 11 21 27.0688020  0  3                     
G 1  22393104.970       64312.186        2017.260          48.750  
G 3  21006444.853      -25642.641        -807.761          39.500  
G11  23055018.978       58564.885        2025.016          43.000  
> 2018  4 22 11 21 27.1688020  0  3                     
G 1  22394975.496       64513.882        2017.326          48.750  
G 3  21008261.880      -25723.363        -806.983          40.250  
G11  23056889.246       58767.421        2026.429          43.500  
> 2018  4 22 11 21 27.2688020  0  3                     
G 1  22396845.470       64715.550        2016.806          49.000  
G 3  21010076.766      -25804.076        -807.212          40.500  
G11  23058760.110       58969.952        2025.294          43.500  
> 2018  4 22 11 21 27.3688020  0  3                     
G 1  22398716.013       64917.230        2016.780          49.000  
G 3  21011891.888      -25884.784        -807.448          40.000  
G11  23060630.007       59172.480        2026.141          43.250  
> 2018  4 22 11 21 27.4688020  0  3                     
G 1  22400586.012       65118.929        2017.386          48.750  
G 3  21013708.931      -25965.496        -806.382          40.250  
G11  23062500.628       59375.028        2025.919          43.000  
> 2018  4 22 11 21 27.5688020  0  3                     
G 1  22402455.720       65320.626        2016.476          49.000  
G 3  21015524.028      -26046.175        -806.745          39.750  
G11  23064371.731       59577.565        2025.088          43.250  
> 2018  4 22 11 21 27.6688020  0  3                     
G 1  22404325.640       65522.290        2016.597          48.750  
G 3  21017339.194      -26126.904        -807.212          40.250  
G11  23066240.993       59780.096        2025.538          43.250  
> 2018  4 22 11 21 27.7688020  0  3                     
G 1  22406194.817       65723.878        2016.008          48.500  
G 3  21019155.246      -26207.689        -808.975          40.250  
G11  23068111.064       59982.521        2023.854          43.000  
> 2018  4 22 11 21 27.8688020  0  3                     
G 1  22408064.594       65925.447        2015.605          48.500  
G 3  21020973.509      -26288.486        -808.717          40.000  
G11  23069981.393       60184.934        2024.731          43.250  
> 2018  4 22 11 21 27.9688020  0  3                     
G 1  22409934.300       66127.073        2016.534          48.750  
G 3  21022789.974      -26369.228        -808.491          40.000  
G11  23071850.310       60387.407        2025.689          43.250  
> 2018  4 22 11 21 28.0688020  0  3                     
G 1  22411804.074       66328.782        2017.578          48.750  
G 3  21024605.074      -26449.875        -806.127          39.750  
G11  23073720.593       60589.965        2024.990          43.250  
> 2018  4 22 11 21 28.1688020  0  3                     
G 1  22413674.251       66530.500        2016.786          48.750  
G 3  21026421.381      -26530.499        -805.972          40.250  
G11  23075591.331       60792.534        2025.348          43.000  
